district,mandal,village,lat,long,date,value
ADILABAD,Adilabad,Adilabad,19.668299,78.5247,01/02/22,7.33
ADILABAD,Bazarhatnur,Bazarhatnur,19.458888,78.350833,01/02/22,4.67
ADILABAD,Bela,Chandpally,19.684431,78.848456,01/02/22,7.75
ADILABAD,Bheempur,Arli,19.83196,78.37931,01/02/22,7.6
ADILABAD,Bheempur,Bheempur,19.772188,78.417841,01/02/22,6.12
ADILABAD,Boath,Boath,19.342416,78.316527,01/02/22,7.1
ADILABAD,Gudihatnoor,Gudihatnoor,19.525555,78.512222,01/02/22,5.65
ADILABAD,Jainath,Bhoraj,19.739722,78.546472,01/02/22,13.73
ADILABAD,Jainath,Jainath,19.730555,78.64,01/02/22,4.28
ADILABAD,Narnoor,Narnoor,19.495665,78.852654,01/02/22,3.13
ADILABAD,Neradigonda,Neradigonda,19.29375,78.41216,01/02/22,9.9
ADILABAD,Talamadugu,Devapur,19.612944,78.463111,01/02/22,6.25
ADILABAD,Talamadugu,Talamadugu,19.6334,78.396899,01/02/22,4.41
ADILABAD,Tamsi,Tamsi,19.6811,78.426799,01/02/22,4.1
ADILABAD,Utnoor,Utnoor,19.367777,78.782777,01/02/22,4.85
BHADRADRI,Allapalli,Allapalli,17.82975,80.475008,01/02/22,7.76
BHADRADRI,Allapalli,Markodu,17.91444,80.507666,01/02/22,6.23
BHADRADRI,Annapureddypalli,Annapureddypalli,17.355422,80.82226,01/02/22,14.84
BHADRADRI,Ashwapuram,Ammagaripalli,17.865166,80.85051,01/02/22,2.37
BHADRADRI,Ashwapuram,Aswapuram,17.847626,80.803745,01/02/22,7.32
BHADRADRI,Ashwapuram,Aswapuram,17.835944,80.825667,01/02/22,6.37
BHADRADRI,Ashwapuram,ASWARAOPET (D),17.243444,81.109888,01/02/22,31.46
BHADRADRI,Aswaraopet (S),Aswaraopet (S),17.244199,81.110599,01/02/22,32.6
BHADRADRI,Aswaraopeta,Duradapadu,17.43166,81.090311,01/02/22,7.58
BHADRADRI,Aswaraopeta,Gummadivalli,17.416861,81.178305,01/02/22,3.5
BHADRADRI,Aswaraopeta,NANDIPADU,17.455835,81.128705,01/02/22,3.21
BHADRADRI,Aswaraopeta,Vinayakapuram,17.34561,81.12147,01/02/22,9.1
BHADRADRI,Bhadrachalam,Bhadrachalam,17.666775,80.900922,01/02/22,7.09
BHADRADRI,Burgampad,Krishnasagar,17.709524,80.811524,01/02/22,7.74
BHADRADRI,Burgampad,M.Banjara,17.6447,80.7911,01/02/22,8.2
BHADRADRI,Chandrugonda,Cherla,18.07449,80.83124,01/02/22,4.55
BHADRADRI,Chandrugonda,Maddukuru,17.356111,80.675527,01/02/22,19.46
BHADRADRI,Chandrugonda,Ravikampadu,17.3986,80.6106,01/02/22,6.88
BHADRADRI,Cherla,Chinmedisileru,18.061388,80.853833,01/02/22,7.46
BHADRADRI,Chunchupalli,Chunchupalli,17.536377,80.612734,01/02/22,4.77
BHADRADRI,Dammapeta,Malkaram,17.310587,81.038879,01/02/22,10.12
BHADRADRI,Dammapeta,Mandalapalli,17.235972,81.008986,01/02/22,40.12
BHADRADRI,Dammapeta,Patwarigudem,17.346638,80.9629722,01/02/22,12.08
BHADRADRI,Dummugudem,Bandirevu,17.921194,80.9155,01/02/22,4.23
BHADRADRI,Dummugudem,Dummugudem,17.8523,80.8937,01/02/22,1.95
BHADRADRI,Gundala,Gundala,17.906,80.33055,01/02/22,4.41
BHADRADRI,Gundala,Kanchanapalli,17.792225,80.42243,01/02/22,3.28
BHADRADRI,Gundala,Mamakannu,17.865819,80.412727,01/02/22,6.84
BHADRADRI,Gundala,Sainapalli,17.95777,80.34505,01/02/22,4.36
BHADRADRI,Gundala,Settupalli,17.810477,80.303583,01/02/22,6.57
BHADRADRI,Julurpadu,P. Narsapuram,17.44733,80.526444,01/02/22,8.35
BHADRADRI,Julurpadu,Papakollu,17.4183,80.4828,01/02/22,4.58
BHADRADRI,Kalvala nagaram*,karakagudem,18.014193,80.619051,01/02/22,2.87
BHADRADRI,Karakagudem,Karakagudem,18.034655,80.568147,01/02/22,3.83
BHADRADRI,Kothagudem,Kothagudem,17.544858,80.61844,01/02/22,21.67
BHADRADRI,Laxmidevipalli,Bangaruchelka,17.756305,80.602444,01/02/22,3.19
BHADRADRI,Laxmidevipalli,Laxmidevipalli,17.563756,80.624863,01/02/22,5.54
BHADRADRI,Manuguru,Manuguru,17.955072,80.83008,01/02/22,6
BHADRADRI,Manuguru,Pagideru,17.970111,80.73386,01/02/22,2.34
BHADRADRI,Mulakalapalli,Mulakalapalli (D),17.5036,80.831899,01/02/22,10.61
BHADRADRI,Mulakalapalli,MULAKALAPALLI (S),17.419666,80.481383,01/02/22,11.76
BHADRADRI,Mulakalapalli,N. Jaganadhapuram,17.4343055,80.86475,01/02/22,9.92
BHADRADRI,Mulakalapalli,Pusugudem            (Pakeer thanda),17.541869,80.763222,01/02/22,3.76
BHADRADRI,Mulakalapalli,Thimmampet,17.541769,80.9327222,01/02/22,5.22
BHADRADRI,Palwancha,Danthalaboru,17.586194,80.839666,01/02/22,5.89
BHADRADRI,Palwancha,Pathapalwancha,17.540083,80.503527,01/02/22,4.12
BHADRADRI,Palwancha,REGELLA,17.949174,80.576312,01/02/22,2.44
BHADRADRI,Palwancha,Ulavanoor,17.780799,80.679199,01/02/22,5.17
BHADRADRI,Palwancha,Yanmbailu,17.678111,80.663944,01/02/22,4.96
BHADRADRI,Pinapaka,Dugenepalli,18.12886,80.64669,01/02/22,4.82
BHADRADRI,Pinapaka,Potlapalli ,18.038255,80.684305,01/02/22,6.68
BHADRADRI,Sujathanagar,Sarvaram (Gudithanda),17.5277166,80.58608,01/02/22,4.41
BHADRADRI,Sujathanagar,Sujathanagar,17.48378,80.57759,01/02/22,7.68
BHADRADRI,Tekulapalli,Bethampudi,17.564333,80.449277,01/02/22,8.13
BHADRADRI,Tekulapalli,Bodu,17.674399,80.443599,01/02/22,4.85
BHADRADRI,Tekulapalli,Mutyalampadu,17.540083,80.503522,01/02/22,5.38
BHADRADRI,Tekulapalli,Sulanagar,17.543558,80.501917,01/02/22,4.52
BHADRADRI,Yellandu,Komararam,17.707922,80.317501,01/02/22,6.8
BHADRADRI,Yellandu,Narayanapuram D,17.5125,80.374999,01/02/22,5.12
BHADRADRI,Yellandu,NARAYANAPURAM S,17.51269,80.37816,01/02/22,5.17
BHADRADRI,Yellandu,Rompedu,17.647382,80.299749,01/02/22,4.71
BHADRADRI,Yellandu,Sudimalla,17.589836,80.354077,01/02/22,4.59
BHUPALPALLY,Bhupalpally,Bhupalpally,18.441128,79.876922,01/02/22,5.47
BHUPALPALLY,Bhupalpally,Gudadpally,18.389256,79.8072,01/02/22,4.18
BHUPALPALLY,Bhupalpally,Nandigama,18.46163889,80.08775,01/02/22,2.84
BHUPALPALLY,Chityala,Chityala,18.337481,79.671932,01/02/22,3.18
BHUPALPALLY,Chityala,Jadalpet,18.383433,79.736111,01/02/22,6.89
BHUPALPALLY,Ghanpur Mulug,Chelpur(D),18.37641667,79.83125,01/02/22,6.16
BHUPALPALLY,Ghanpur Mulug,Chelpur(S),18.375514,79.835062,01/02/22,6.32
BHUPALPALLY,Ghanpur Mulug,Velthurlapally,18.29822222,79.89383333,01/02/22,8.11
BHUPALPALLY,Kataram,Jadaraopet,18.69579,79.883779,01/02/22,14.06
BHUPALPALLY,Kataram,Medipally,18.550111,79.923666,01/02/22,17.89
BHUPALPALLY,Kataram,Regulagudem,18.623722,79.868777,01/02/22,36.31
BHUPALPALLY,Kataram,Shankarampally 125(D),18.603804,79.898529,01/02/22,19.04
BHUPALPALLY,Kataram,Shankarampally 47,18.61308333,79.88513889,01/02/22,20.39
BHUPALPALLY,Maha Mutharam,Stambampally,18.563899,79.9927,01/02/22,1.58
BHUPALPALLY,Maha Mutharam,Yatnaram,18.573833,80.152333,01/02/22,4.37
BHUPALPALLY,Mahadevpur,Ambatipalli,18.695678,80.061858,01/02/22,20.28
BHUPALPALLY,Mahadevpur,Annaram,18.762444,79.843138,01/02/22,19.18
BHUPALPALLY,Mahadevpur,Kaleswaram,18.803055,79.905444,01/02/22,11.87
BHUPALPALLY,Mahadevpur,Mahadevpur -125D,18.72627778,79.97925,01/02/22,11.49
BHUPALPALLY,Mahadevpur,Mahadevpur 199D,18.72627778,79.97925,01/02/22,12.76
BHUPALPALLY,Mahadevpur,Mahadevpur 75NC,18.799999,79.916666,01/02/22,10.95
BHUPALPALLY,Malhar Rao,Mallaram,18.556805,79.785777,01/02/22,5.87
BHUPALPALLY,Mogullapalli,Aknepally,18.3631,79.6103,01/02/22,5.49
BHUPALPALLY,Mogullapalli,Rangapur,18.27063889,79.68827778,01/02/22,6.18
BHUPALPALLY,Palimela,Kamanpally,18.625166,80.245666,01/02/22,2.14
BHUPALPALLY,Palimela,Lenkalagadda,18.674833,80.129555,01/02/22,14.61
BHUPALPALLY,Palimela,Sarvaipet,18.683222,80.238166,01/02/22,14.98
BHUPALPALLY,Regonda,Gorikothapally,18.179599,79.814499,01/02/22,5.87
BHUPALPALLY,Regonda,Regonda,18.239999,79.7775,01/02/22,5.86
BHUPALPALLY,Tekumatla,Ramakrishnapuram,18.419,79.630499,01/02/22,4.78
HYDERABAD,Ameerpet,"DIRECTOR WOMEN AND CHILD WELFARE, YOUSUFGUDA",17.262,78.262,01/02/22,
HYDERABAD,Ameerpet,S.R.Nagar,17.264,78.262,01/02/22,19.9
HYDERABAD,Ameerpet,"STDC Chest Hospital, Erragadda",17.264,78.264,01/02/22,13.58
HYDERABAD,Asifnagar,"Govt. Polytechnic, Masab Tank.",17.241,78.271,01/02/22,7.28
HYDERABAD,Asifnagar,Himayanagar,17.235,78.265,01/02/22,2.83
HYDERABAD,Asifnagar,Kulsanapur,17.223,78.203,01/02/22,5.02
HYDERABAD,Bandlaguda,Chandraingutta,17.195,78.29,01/02/22,11.95
HYDERABAD,Bhadurpura,Bahadurpura,17.21,78.273,01/02/22,1.81
HYDERABAD,Charminar,Darul Shifa,17.222,78.295,01/02/22,5.64
HYDERABAD,Himayathnagar,"Fever Hospital, Nallakunta",17.235,78.3,01/02/22,5.8
HYDERABAD,Himayathnagar,Indira Park,17.256,78.283,01/02/22,2.81
HYDERABAD,Khairathabad,"CME premises, Chinthalbasti",17.243,78.274,01/02/22,7.17
HYDERABAD,Khairathabad,"CME premises, Chinthalbasti",17.325,78.272,01/02/22,7.47
HYDERABAD,Khairathabad,Khairathabad,,,01/02/22,
HYDERABAD,Khairathabad,T.S..Secretariat,17.243,78.281,01/02/22,
HYDERABAD,Maredpally,"Govt.Jr.College,West Maredpally",17.264,78.292,01/02/22,5.3
HYDERABAD,Maredpally,Maredpally(s),17.264,78.303,01/02/22,12.93
HYDERABAD,Musheerabad,Musheerabad,17.253,78.302,01/02/22,6.26
HYDERABAD,Nampally,Nampally,17.252,78.286,01/02/22,3.81
HYDERABAD,Saidabad,Juvinile home,17.102,78.172,01/02/22,3.65
HYDERABAD,Secunderabad ,"Sanjeevaiah Park, Hussian Sagar.",17.295,78.272,01/02/22,3.22
HYDERABAD,Shaikpet,Shaikpet,17.253,78.265,01/02/22,
HYDERABAD,Shaikpet,"Vengal Rao Park, Srinagar colony",,,01/02/22,3.49
HYDERABAD,Tirmalgiri,"NIMH,Hasmathpet",17.281,78.292,01/02/22,8.3
JAGITYAL,Beerpur,Kandlapalle,19.027722,78.961055,01/02/22,3.05
JAGITYAL,Dharmapuri,Dharmapuri,18.946944,79.101944,01/02/22,5.61
JAGITYAL,Dharmapuri,Jaina,19.00419,79.0429,01/02/22,4.99
JAGITYAL,Gollapalli,Gollapalli,18.7906,79.0522,01/02/22,5.73
JAGITYAL,Ibrahimpatnam,Ibrahimpatnam,18.898611,78.579444,01/02/22,2.95
JAGITYAL,Jagityal,Jagityal,18.46311,78.54365,01/02/22,6.02
JAGITYAL,Jagityal,Morapally,18.49379,78.51353,01/02/22,2.31
JAGITYAL,Kathalapur,Kathalapur,18.752777,78.689722,01/02/22,1.25
JAGITYAL,Kodimal,Chepial,18.624722,78.935833,01/02/22,5.67
JAGITYAL,Korutla,Ilapur,18.8561,78.7039,01/02/22,6.33
JAGITYAL,Korutla,Korutla,18.818611,78.706388,01/02/22,7.53
JAGITYAL,Mallapur,Mallapur,18.993948,78.770044,01/02/22,3.64
JAGITYAL,Mallapur,VV Raopet,18.9647,78.706399,01/02/22,5.53
JAGITYAL,Mallial,Nukapalli,18.709399,78.922199,01/02/22,3.8
JAGITYAL,Medipally,Desaipet,18.4223,78.45427,01/02/22,1.55
JAGITYAL,Medipally,Katlakunta,18.843888,78.813333,01/02/22,6.43
JAGITYAL,Medipally,Rangapur,18.758416,78.792333,01/02/22,2.16
JAGITYAL,Metpalli,Metpalli,18.847777,78.620555,01/02/22,
JAGITYAL,Metpalli,Atmakur,18.752194,78.620111,01/02/22,7.61
JAGITYAL,Metpalli,Bandalingapur,18.830899,78.5853,01/02/22,2.47
JAGITYAL,Metpalli,Metla Chittapur,18.781131,78.588005,01/02/22,2.36
JAGITYAL,Pegadapalli,Pegadapalli,18.706388,79.064444,01/02/22,4.35
JAGITYAL,Raikal,Bornapally,19.026499,78.8235,01/02/22,3.38
JAGITYAL,Raikal,Itikyal,18.9192,78.760618,01/02/22,2.44
JAGITYAL,Raikal,Raikal,18.910338,78.802852,01/02/22,2.01
JAGITYAL,Raikal,Vodde lingapur,18.959166,78.837222,01/02/22,2.11
JAGITYAL,Sarangapur,Rachapalli,18.931444,78.931444,01/02/22,3.26
JAGITYAL,Sarangapur,Sarangapur,18.929722,78.958055,01/02/22,4.8
JAGITYAL,Velgatur,Chegyam,18.814499,79.273599,01/02/22,3.08
JAGITYAL,Velgatur,Stambampally,18.861,79.161,01/02/22,5.36
JAGITYAL,Velgatur,Velgatur,18.835299,79.169699,01/02/22,3.49
JANGAON,Bachannapet,Bachannapet,17.7908,79.0422,01/02/22,4.54
JANGAON,Bachannapet,Padamati Keshapur,17.838299,78.9394,01/02/22,6.6
JANGAON,Chilpur,Kistajigudem,,,01/02/22,5.31
JANGAON,Chilpur,Malkapur,,,01/02/22,8.89
JANGAON,Devaruppula,Devaruppula,17.537399,79.356199,01/02/22,3.18
JANGAON,Devaruppula,Singarajupalli,17.5919,79.273799,01/02/22,4.88
JANGAON,Ghanpur stn,Chagal,17.838699,79.3604,01/02/22,12.25
JANGAON,Ghanpur stn,Namiligonda,,,01/02/22,1.41
JANGAON,Jangaon,Jangaon,17.697299,79.147399,01/02/22,3.18
JANGAON,Jangaon,Siddanki,17.7676,79.0981,01/02/22,7.23
JANGAON,Kodakandla,Kodakandla,17.5258,79.514399,01/02/22,7.95
JANGAON,Lingala ghanpur,Jeedikal,17.6084,79.161299,01/02/22,5.15
JANGAON,Lingala ghanpur,Lingala ghanpur,17.659099,79.1997,01/02/22,5.81
JANGAON,Lingala ghanpur,Vadicherla,17.6606,79.236499,01/02/22,1.35
JANGAON,Narmetta,Machupahad,17.87118,79.222159,01/02/22,6.67
JANGAON,Narmetta,Veldanda,17.858198,79.124717,01/02/22,4.35
JANGAON,Palakurthi,Gudur,17.736265,79.409394,01/02/22,3.29
JANGAON,Palakurthi,Palakurthi,17.669099,79.422499,01/02/22,5.7
JANGAON,Raghunadhapalli,Ibrahimpur,,,01/02/22,6.32
JANGAON,Raghunadhapalli,Nidigonda,17.740555,79.233333,01/02/22,4
JANGAON,Raghunadhapalli,Raghunadhapalli,17.747222,79.26,01/02/22,9.05
JANGAON,Tarigopulla,Tarigopulla,,,01/02/22,7.36
JANGAON,Zafergad,Kunur,17.847,79.4766,01/02/22,11.21
JANGAON,Zafergad,Zafergad,17.7651,79.487,01/02/22,6.43
JOGULAMBA(GADWAL),Alampur,Alampur,15.896441,78.121104,01/02/22,2.53
JOGULAMBA(GADWAL),Dharoor,Dharoor,16.224385,77.678908,01/02/22,6.12
JOGULAMBA(GADWAL),Dharoor,Neelahally,16.28659,77.61226,01/02/22,8.57
JOGULAMBA(GADWAL),Gadwal,Gadwal,16.2326,77.802099,01/02/22,2.16
JOGULAMBA(GADWAL),Gattu,Allor,,,01/02/22,6.36
JOGULAMBA(GADWAL),Gattu,Gattu,16.1287,77.5757,01/02/22,2.38
JOGULAMBA(GADWAL),Gattu,Induvasi,16.03913,77.5248,01/02/22,
JOGULAMBA(GADWAL),Ieeza,Eklaspur,16.04836,77.63844,01/02/22,7.1
JOGULAMBA(GADWAL),Ieeza,Ieeza,16.0255,77.66929,01/02/22,12.17
JOGULAMBA(GADWAL),Itikyal,Kodandapur,16.070099,77.831499,01/02/22,15.21
JOGULAMBA(GADWAL),K-T Doddi,Kondapur,16.24993,77.56556,01/02/22,4.67
JOGULAMBA(GADWAL),K-T Doddi,Kuchinerla,16.17976,77.52709,01/02/22,1.99
JOGULAMBA(GADWAL),Maldakal,Maldakal,15.9656,77.9533,01/02/22,1.58
JOGULAMBA(GADWAL),Manopad,Manopad,15.9656,77.9533,01/02/22,3.08
JOGULAMBA(GADWAL),Undavally,Pullur,15.91743,78.00845,01/02/22,19.25
JOGULAMBA(GADWAL),Undavally,Undavally,15.93461,78.03947,01/02/22,3.11
JOGULAMBA(GADWAL),Waddepalli,Santhinagar,15.939999,77.839,01/02/22,1.45
KAMAREDDY,Bansawada,Bansawada,18.392999,77.879,01/02/22,6.6
KAMAREDDY,Bansawada,Budimi,18.34,77.89,01/02/22,3.11
KAMAREDDY,Bhiknoor,Bhiknoor,18.195999,78.398999,01/02/22,3.13
KAMAREDDY,Bhiknoor,Issannapally,18.142899,78.4767,01/02/22,10.44
KAMAREDDY,Bhiknoor,P.D.Mallareddy,18.173,78.452999,01/02/22,24.06
KAMAREDDY,Bibipet,Bibipet,18.206539,78.526499,01/02/22,13.16
KAMAREDDY,BICHKUNDA,Pulkal,18.2356,77.4601,01/02/22,3.5
KAMAREDDY,Birkur,Birkur,18.47,77.802999,01/02/22,7.85
KAMAREDDY,Domakonda,Domakonda,18.249999,78.436,01/02/22,13.5
KAMAREDDY,Gandhari,Gandhari,18.396,78.107,01/02/22,15.87
KAMAREDDY,Gandhari,Ramlaxmanpally,18.319999,78.13,01/02/22,11.5
KAMAREDDY,Gandhari,Sarvapoor,18.3647,77.9851,01/02/22,11.21
KAMAREDDY,Jukkal,Jukkal,18.364,77.604,01/02/22,4.97
KAMAREDDY,Jukkal,Savargao,18.321675,77.649524,01/02/22,4.18
KAMAREDDY,Kamareddy,Adloor,18.343799,78.3435,01/02/22,10.56
KAMAREDDY,Kamareddy,Narasannapally,18.2686,78.361699,01/02/22,11.8
KAMAREDDY,Lingampet,Bhavanipet,18.279099,78.057999,01/02/22,9.81
KAMAREDDY,Lingampet,Khannapur,18.19,78.159999,01/02/22,15.91
KAMAREDDY,Lingampet,Mothe,18.31,78.17,01/02/22,11
KAMAREDDY,Machareddy,Machareddy,18.329,78.493,01/02/22,6.62
KAMAREDDY,Maddnur,Menoor,18.482999,77.652,01/02/22,5
KAMAREDDY,Maddnur,SOMUR,,,01/02/22,4.89
KAMAREDDY,Nagireddipet,Banjara Thanda,18.1449,78.081799,01/02/22,14.5
KAMAREDDY,Nagireddipet,Malthummeda,18.113999,78.141999,01/02/22,9.01
KAMAREDDY,Nasurullabad,Nasurullabad,18.467999,77.872999,01/02/22,3.29
KAMAREDDY,Nizamsagar,Achampet,18.209999,77.93,01/02/22,7.71
KAMAREDDY,Nizamsagar,Mohammadnagar,18.293098,77.908661,01/02/22,8.27
KAMAREDDY,Pedda Kodapgal,Shanthapur,18.1952,77.4355,01/02/22,4.68
KAMAREDDY,Pitlam,Maddela Cheruvu,18.35,77.849999,01/02/22,10.95
KAMAREDDY,Rajampet,Argonda,18.233999,78.272,01/02/22,15.01
KAMAREDDY,Rajampet,Kondapur,18.189999,78.279999,01/02/22,10.18
KAMAREDDY,RAMAREDDY,Reddypet,18.2433,78.2501,01/02/22,11.16
KAMAREDDY,Sadasivanagar,Sadasivanagar,18.406,78.264,01/02/22,9.18
KAMAREDDY,Tadwai,Yerrapahad,18.292999,78.222999,01/02/22,2.39
KAMAREDDY,Tadwai,Annaram,,,01/02/22,16.4
KAMAREDDY,Yellareddy,Yellareddy,18.194033,78.019817,01/02/22,11.98
KAMAREDDY,BANSWADA ,HANMAJIPET ,,,01/02/22,7.56
KAMAREDDY,BHIKNOOR ,KACHAPOOR ,,,01/02/22,12.18
KAMAREDDY,BHIKNOOR ,MALLUPALLY ,,,01/02/22,15.68
KAMAREDDY,BICHKUNDA ,DOULTHAPUR ,,,01/02/22,4.76
KAMAREDDY,BICHKUNDA ,GUNDE NEMLI ,,,01/02/22,11.28
KAMAREDDY,BICHKUNDA ,PD DADGI ,,,01/02/22,19.15
KAMAREDDY,DOMAKONDA ,AMBERPET ,,,01/02/22,12.11
KAMAREDDY,DOMAKONDA ,ANCHANOOR ,,,01/02/22,17.58
KAMAREDDY,GANDHARI ,CHADMAL ,,,01/02/22,
KAMAREDDY,GANDHARI ,GURJAL ,,,01/02/22,20.3
KAMAREDDY,LINGAMPET ,LINGAMPET ,,,01/02/22,3.5
KAMAREDDY,LINGAMPET ,PARMALLA,,,01/02/22,7.31
KAMAREDDY,MACHAREDDY ,RAJKHANPET ,,,01/02/22,5.84
KAMAREDDY,MADNOOR ,MADNOOR ,,,01/02/22,6.4
KAMAREDDY,MADNOOR ,RUSEGAON,,,01/02/22,3.58
KAMAREDDY,NAGIREDDYPET ,WADALPARTHY ,,,01/02/22,16.53
KAMAREDDY,NASRULLABAD ,BOMMADEVPALLY ,,,01/02/22,1.98
KAMAREDDY,NASRULLABAD ,BOPPASPALLY ,,,01/02/22,3.24
KAMAREDDY,NASRULLABAD ,MIRZAPUR ,,,01/02/22,6.74
KAMAREDDY,NIZAMSAGAR ,BURGUL ,,,01/02/22,4.4
KAMAREDDY,NIZAMSAGAR ,NARVA ,,,01/02/22,1
KAMAREDDY,NIZAMSAGAR ,VELGANOOR ,,,01/02/22,10.49
KAMAREDDY,PITLAM ,CHILLARGI ,,,01/02/22,6.68
KAMAREDDY,PITLAM ,GODMAGAON ,,,01/02/22,11.96
KAMAREDDY,PITLAM ,KURTHI / RAMPUR,,,01/02/22,12
KAMAREDDY,PITLAM ,NAGAMPALLY ,,,01/02/22,9.15
KAMAREDDY,PITLAM ,PITLAM ,,,01/02/22,9.2
KAMAREDDY,RAJAMPET ,SIDDAPOOR ,,,01/02/22,17.08
KAMAREDDY,RAMAREDDY ,DEVANPALLE ,,,01/02/22,8.9
KAMAREDDY,SADHASHIVNAGAR ,PADMAJI WADA ,,,01/02/22,13
KAMAREDDY,SADHASHIVNAGAR ,UTNOOR ,,,01/02/22,8.1
KAMAREDDY,TADWAI ,KANKAL,,,01/02/22,12.26
KAMAREDDY,YELLAREDDY ,THIMMAREDDY ,,,01/02/22,13.44
KAMAREDDY,YELLAREDDY ,YELLAREDDY ,,,01/02/22,11.98
KARIMNAGAR,Chigurumamidi,Bommanapalli,18.212599,79.230099,01/02/22,
KARIMNAGAR,Chigurumamidi,Chigurumamidi,18.23625,79.201111,01/02/22,5.76
KARIMNAGAR,Chigurumamidi,Ramancha,,,01/02/22,8.61
KARIMNAGAR,Choppadandi,Rukmapur,18.5334,79.1461,01/02/22,9.1
KARIMNAGAR,Ellandakunta ,Illanthukunta ,,,01/02/22,3.21
KARIMNAGAR,Gangadhara,Burugupally,18.638599,79.0333,01/02/22,5.68
KARIMNAGAR,Gangadhara,Gangadhara,18.579444,79.008888,01/02/22,16.28
KARIMNAGAR,Ganneruvaram,Mylaram,18.3692,79.0731,01/02/22,8.36
KARIMNAGAR,Huzurabad,Huzurabad,18.500305,79.144638,01/02/22,3.42
KARIMNAGAR,Jammikunta,Vavilala,18.3963,79.5529,01/02/22,3.25
KARIMNAGAR,Karimnagar,Nagnur,18.500305,79.144638,01/02/22,2.23
KARIMNAGAR,Karimnagar,Karimnagar,18.436111,79.128333,01/02/22,5.55
KARIMNAGAR,Keshavpatnam,Thadikal,,,01/02/22,4.86
KARIMNAGAR,Manakondur,Laxmipur,18.446611,79.285194,01/02/22,2.02
KARIMNAGAR,Ramadugu,Gundi,18.618833,79.087249,01/02/22,5.31
KARIMNAGAR,Saidapur,Saidapur,18.2148,79.305174,01/02/22,5.5
KARIMNAGAR,Thimmapur,Alugunur,,,01/02/22,4.2
KARIMNAGAR,Thimmapur,Nedunur,18.3117,79.1383,01/02/22,10.33
KARIMNAGAR,Veenavanka,Veenavanka,18.346111,79.420555,01/02/22,3.53
KHAMMAM,Bonakal,Mustikunta,17.040809,80.223141,01/02/22,1.14
KHAMMAM,Bonakal,Pedabeeravalli,17.05097222,80.30377778,01/02/22,0.91
KHAMMAM,Chintakani,Pandillapalli,17.14880556,80.17716667,01/02/22,1.95
KHAMMAM,Enkoor,Enkoor,17.32641667,80.44434167,01/02/22,8.35
KHAMMAM,Enkoor,Timmaraopeta,17.37421944,80.3667,01/02/22,2.88
KHAMMAM,Kallur,Kallur,17.209999,80.5467,01/02/22,2.87
KHAMMAM,Kamepalli,Kothalingala,17.429453,80.237801,01/02/22,5.94
KHAMMAM,Kamepalli,Ootkuru,17.45961111,80.29536111,01/02/22,8.43
KHAMMAM,Khammam (R ),Theerthala,,,01/02/22,2.76
KHAMMAM,Khammam (R ),M.V.Palem,17.2967,80.0969,01/02/22,4.07
KHAMMAM,Khammam(U),Khammam I,17.2333,80.1333,01/02/22,1.3
KHAMMAM,Khammam(U),Khammam-II,17.2525,80.143599,01/02/22,1.64
KHAMMAM,Konijerla,Gubbagurthi,17.28016667,80.36358333,01/02/22,2.53
KHAMMAM,Konijerla,Konijerla,17.2211,80.290799,01/02/22,1.91
KHAMMAM,Kusumanchi,Jakkapally,17.14038056,79.96790278,01/02/22,1.73
KHAMMAM,Kusumanchi,Kusumanchi,17.2208,79.958299,01/02/22,7.67
KHAMMAM,Madhira,Madhira,16.93955556,80.3685,01/02/22,6.4
KHAMMAM,Madhira,Nidhanapuram,16.92044444,80.41705556,01/02/22,6.43
KHAMMAM,Mudigonda,Banapuram,17.06283889,80.12111111,01/02/22,0.46
KHAMMAM,Mudigonda,Mudigonda,17.187499,80.0986,01/02/22,2.02
KHAMMAM,Nelakondapalli,Bodulabanda,17.0930556,80.0160833,01/02/22,1.25
KHAMMAM,Nelakondapalli,Buddaram,17.01656944,80.05926111,01/02/22,2.75
KHAMMAM,Penuballi,Lankapalli,17.20305556,80.73527778,01/02/22,10.53
KHAMMAM,Penuballi,Lingagudem,17.203055,80.735277,01/02/22,
KHAMMAM,Penuballi,Penuballi,17.2135,80.6656111,01/02/22,2.36
KHAMMAM,Penuballi,Tallapenta,,,01/02/22,2.74
KHAMMAM,Raghundhapalem,Erlapudi,17.32465,80.27065,01/02/22,5.46
KHAMMAM,Sathupalli,Cherukupalli,17.25627778,80.77747222,01/02/22,2.68
KHAMMAM,Sathupalli,Prakashnagar,17.194199,80.894199,01/02/22,36.91
KHAMMAM,Singareni,Madharam,17.53863889,80.22588889,01/02/22,3.4
KHAMMAM,Thallada,Anjanapuram,17.2147,80.4625,01/02/22,2.74
KHAMMAM,Thallada,Laxmipuram,17.16438056,80.49443889,01/02/22,2.67
KHAMMAM,Thirumalayapalem,Kakaravai,17.30661111,79.83988889,01/02/22,2.14
KHAMMAM,Thirumalayapalem,Tippareddigudem,17.37288889,79.98063889,01/02/22,3.35
KHAMMAM,Thirumalayapalem,Bachode,17.372877,79.980619,01/02/22,2.59
KHAMMAM,Thirumalayapalem,Tirumalayapalem,17.2997,79.900599,01/02/22,3.23
KHAMMAM,Vemsur,Vemsur,17.144199,80.805,01/02/22,2.25
KHAMMAM,Vemsur,Kallurigudem,17.11036111,80.74994444,01/02/22,8.78
KHAMMAM,Vemsur,Kandukuru,17.07472222,80.83725,01/02/22,3.39
KHAMMAM,Wyra,Siripuram,17.16046944,80.40075833,01/02/22,2.95
KHAMMAM,Yerrupalem,Banigandlapadu,16.86169444,80.48302778,01/02/22,18.45
KHAMMAM,Yerrupalem,Bheemavaram,16.93666667,80.51011111,01/02/22,3.2
KUMURAM BHEEM,Asifabad,Asifabad,19.359617,79.286065,01/02/22,16.85
KUMURAM BHEEM,Asifabad,Kommuguda,19.391953,79.250368,01/02/22,2.96
KUMURAM BHEEM,Bejjur,Bejjur,19.356582,79.862302,01/02/22,2.61
KUMURAM BHEEM,Bejjur,Rebbana,19.400277,79.749999,01/02/22,2.83
KUMURAM BHEEM,Dahegaon,Dahegaon,19.250555,79.702222,01/02/22,14.27
KUMURAM BHEEM,Jainoor,Rasimetta,19.400645,78.996121,01/02/22,4.67
KUMURAM BHEEM,Kagaznagar,Jambugaon,19.325138,79.576266,01/02/22,13.08
KUMURAM BHEEM,Kagaznagar,Kagaznagar,19.355709,79.496997,01/02/22,3.61
KUMURAM BHEEM,Kerameri,Bheemangondi,19.423766,79.152032,01/02/22,8.96
KUMURAM BHEEM,Kerameri,Kerameri,19.444,79.05625,01/02/22,11.14
KUMURAM BHEEM,Kowthala,Kowthala,19.521899,79.7324,01/02/22,5.03
KUMURAM BHEEM,Lingapur,Loddiguda,19.23191,79.06601,01/02/22,1.05
KUMURAM BHEEM,Penchikalpet,Yelkapally,19.278088,79.756802,01/02/22,13.6
KUMURAM BHEEM,Rebbena,Rebbena II,19.257,79.415972,01/02/22,6.88
KUMURAM BHEEM,Sirput-T,Sirput-T,19.479999,79.569999,01/02/22,
KUMURAM BHEEM,Tiryani,Bheempur,19.110748,79.203166,01/02/22,11.05
KUMURAM BHEEM,Tiryani,Pangidimadra,19.251129,79.14703,01/02/22,4
KUMURAM BHEEM,Tiryani,Tiryani,19.174472,79.272249,01/02/22,
KUMURAM BHEEM,Wankidi,Savathi,19.57,79.27,01/02/22,7.32
KUMURAM BHEEM,Wankidi,Wankidi,19.479999,79.32,01/02/22,7.92
MAHABUBABAD,Bayyaram,Balajipeta,17.610599,80.087199,01/02/22,3.5
MAHABUBABAD,Bayyaram,Gurimalla***,17.4135,80.0466,01/02/22,4.5
MAHABUBABAD,Bayyaram,Kothagudem***,17.3725,80.1088,01/02/22,3.89
MAHABUBABAD,Bayyaram,Kothapeta***,17.3346,80.0907,01/02/22,2.16
MAHABUBABAD,Bayyaram,Motlathimapuram***,17.41747,80.0647,01/02/22,4.1
MAHABUBABAD,Chinna Gudur,Chinna Gudur,17.514565,79.885498,01/02/22,3.95
MAHABUBABAD,Dhantalapally,Dhantalapally,17.514699,79.7347,01/02/22,2.29
MAHABUBABAD,Dornakal,Gollacherla,17.467899,80.0922,01/02/22,0.94
MAHABUBABAD,Dornakal,Mannegudem,17.374115,80.043883,01/02/22,4.82
MAHABUBABAD,Dornakal,Perumalla Sankeesa,17.420199,80.053599,01/02/22,2.1
MAHABUBABAD,Gangaram,Gangaram,17.824,80.1974,01/02/22,3.14
MAHABUBABAD,Gangaram,Komatlagudem,17.8808,80.230599,01/02/22,15.05
MAHABUBABAD,Garla,Garla***,17.2924,80.0948,01/02/22,4.58
MAHABUBABAD,Garla,Maddivancha***,17.3147,80.0554,01/02/22,4.1
MAHABUBABAD,Gudur,Gudur,17.800499,79.981099,01/02/22,2.42
MAHABUBABAD,Kesamudram,Kalwala,17.6555,79.8869,01/02/22,4.81
MAHABUBABAD,Kesamudram,Kesamudram,17.6816,79.906899,01/02/22,3.58
MAHABUBABAD,Koravi,Ayyagaripally,17.502999,79.988599,01/02/22,2.16
MAHABUBABAD,Koravi,Mogilicherla,17.540299,80.0335,01/02/22,2.89
MAHABUBABAD,Koravi,Upperagudem,17.4494,80.035499,01/02/22,4.16
MAHABUBABAD,Kothaguda,Kothaguda,17.910499,80.055099,01/02/22,7.85
MAHABUBABAD,Kothaguda,Madagudem,17.3217,80.0152,01/02/22,3.73
MAHABUBABAD,Kothaguda,Sidireddypally,17.994099,80.0451,01/02/22,4.15
MAHABUBABAD,Mahabubabad,Amanagal,17.593999,79.909899,01/02/22,5.16
MAHABUBABAD,Mahabubabad,Mahabubabad,17.598299,80.001099,01/02/22,3.24
MAHABUBABAD,Marripeda,Giripuram,17.369232,79.878278,01/02/22,9.42
MAHABUBABAD,Marripeda,Marripeda,17.385199,79.8941,01/02/22,5.78
MAHABUBABAD,Marripeda,Yellampet,17.450099,79.8631,01/02/22,1.95
MAHABUBABAD,Narasihulapet,Komalavancha,17.529999,79.789,01/02/22,4.81
MAHABUBABAD,Nellikudur,Chinna Nagaram,17.6377,79.7746,01/02/22,8.42
MAHABUBABAD,Nellikudur,Nellikudur,17.5897,79.7597,01/02/22,2.73
MAHABUBABAD,Nellikudur,Ramanjapuram,17.6159,79.7249,01/02/22,5.98
MAHABUBABAD,Peddavangara,Waddekothapalli,17.527081,79.558433,01/02/22,4.13
MAHABUBABAD,Torrur,Haripirala,17.5225,79.645,01/02/22,2.63
MAHABUBABAD,Torrur,Torrur,17.583599,79.6611,01/02/22,6.27
MAHABUBNAGAR,Addakal,Addakal,16.51611111,77.934727,01/02/22,6.61
MAHABUBNAGAR,Balanagar,Udityal,16.965124,78.122216,01/02/22,11.67
MAHABUBNAGAR,Bhoothpur,Bhoothpur,16.697147,78.055246,01/02/22,3.88
MAHABUBNAGAR,Bhoothpur,Elkicherla,16.623767,78.116336,01/02/22,6.68
MAHABUBNAGAR,CC Kunta,Damagnapur,16.5,77.77361111,01/02/22,1.51
MAHABUBNAGAR,CC Kunta,Kurumurthy,16.441442,77.816757,01/02/22,14.54
MAHABUBNAGAR,CC Kunta,Thirmalapur,16.463719,77.825202,01/02/22,4.5
MAHABUBNAGAR,Devarkadara,Chinnarajmoor,16.68027778,77.77416667,01/02/22,8.08
MAHABUBNAGAR,Devarkadara,Devarakadra,16.6058,77.832836,01/02/22,8.56
MAHABUBNAGAR,Devarkadara,Koukuntla,16.522954,77.859849,01/02/22,6.73
MAHABUBNAGAR,Devarkadara,Meenuguvanipally,16.59570278,77.82498056,01/02/22,3.09
MAHABUBNAGAR,Gandeed,Mohammadabad,16.88749,77.902887,01/02/22,6.33
MAHABUBNAGAR,Gandeed,Salkerpet,16.926205,77.791763,01/02/22,10.19
MAHABUBNAGAR,Hanwada,Hanwada,16.808381,77.897252,01/02/22,9.61
MAHABUBNAGAR,Hanwada,Vepur,16.836501,77.793152,01/02/22,9.03
MAHABUBNAGAR,Jadcherla,Jadcherla,16.774181,78.122404,01/02/22,14.24
MAHABUBNAGAR,Jadcherla,Konded,16.815457,78.272333,01/02/22,8.81
MAHABUBNAGAR,Koilkonda,Dammaipally,16.778656,77.877742,01/02/22,3.12
MAHABUBNAGAR,Koilkonda,Koilkonda,16.755147,77.789348,01/02/22,3.93
MAHABUBNAGAR,Mahabubnagar (R) ,Kodur,16.67811389,77.92589444,01/02/22,6.9
MAHABUBNAGAR,Mahabubnagar(U),Yenugonda,16.761294,78.020981,01/02/22,7.64
MAHABUBNAGAR,Midjil,Kothapalli,16.7506,78.2315,01/02/22,4.66
MAHABUBNAGAR,Midjil,Midjil,16.726583,78.318739,01/02/22,10.56
MAHABUBNAGAR,MOOSPET,MOOSPET,16.603141,77.979677,01/02/22,5.19
MAHABUBNAGAR,Nawabpet,Nawabpet,16.887999,78.0239,01/02/22,5.68
MAHABUBNAGAR,Rajapur,Rajapur,16.8378,78.1538,01/02/22,14.69
MANCHERIAL,Bellampally,Bellampally I,19.072388,79.502638,01/02/22,14.76
MANCHERIAL,Bhimini,Rampur,19.1695,79.583939,01/02/22,1.79
MANCHERIAL,Chennur,Chennur I,18.852222,79.780222,01/02/22,6.12
MANCHERIAL,Chennur,Kommera,18.7725,79.79981,01/02/22,1.69
MANCHERIAL,Dandepally,Myadaripet,19.005028,79.144671,01/02/22,3.91
MANCHERIAL,Hazipur,Hazipur,18.874803,79.322716,01/02/22,2.79
MANCHERIAL,Jaipur,Jaipur,18.844277,79.579972,01/02/22,2.8
MANCHERIAL,Jaipur,Kundaram,18.787918,79.631578,01/02/22,17.75
MANCHERIAL,Jannaram,Indanpally,19.164226,78.910552,01/02/22,3.6
MANCHERIAL,Kannepally,Jankapur,18.9999,79.40806,01/02/22,0.74
MANCHERIAL,Kasipet,Kondapur,19.039139,79.397808,01/02/22,1.67
MANCHERIAL,Kotapally,Kotapally,18.95,79.881944,01/02/22,13.17
MANCHERIAL,Laxettipet,Luxettipet,18.877722,79.202054,01/02/22,3.96
MANCHERIAL,Mandamarri,Mandamarri,18.978679,79.477854,01/02/22,4.15
MANCHERIAL,Mandamarri,Ponnaram,18.940004,79.544712,01/02/22,13.9
MANCHERIAL,Nennel,Nennel,19.079833,79.627194,01/02/22,3.27
MANCHERIAL,Tandur,Tandur ,19.157871,79.456254,01/02/22,10.58
MANCHERIAL,Vemanpally,Neelwai,19.04799,79.81505,01/02/22,0.6
MEDAK,Alladurg,Alladurg,17.988964,77.923766,01/02/22,18.5
MEDAK,Alladurg,Muslapur,,,01/02/22,
MEDAK,Chegunta,Chegunta,17.978333,78.459722,01/02/22,8.93
MEDAK,Chegunta,Chandiapet,17.9341,78.5186,01/02/22,10.12
MEDAK,Chilipade,Chilipade,17.52161,78.07166,01/02/22,23.9
MEDAK,Havelighanpur,Mutayapally,18.05046,78.130707,01/02/22,7.75
MEDAK,Havelighanpur,Nagaram (Fareedpur),18.04398,78.11515,01/02/22,10.15
MEDAK,Kowdipally,Kowdipally,17.895833,78.208333,01/02/22,14.52
MEDAK,Kulcharam,Rangampet,17.945099,78.1176,01/02/22,20
MEDAK,Manaharabad,Manaharabad,17.45583,78.27446,01/02/22,8.25
MEDAK,Medak,Medak,18.052799,78.270799,01/02/22,11.51
MEDAK,Medak,Pillikotal,18.01261,78.16118,01/02/22,5.15
MEDAK,Narasapur,Narasapur,17.735,78.2819,01/02/22,11.35
MEDAK,Narasingi,Narasingi,18.02491,78.25505,01/02/22,15.95
MEDAK,Narasapur,Reddypally,17.779999,78.259,01/02/22,13.8
MEDAK,Nizampet,Naskal,18.1614,78.547599,01/02/22,7.75
MEDAK,Papannapet,Papannapet,18.04217,78.085354,01/02/22,11.59
MEDAK,Ramayampet,Ramayampet,18.07038,78.25505,01/02/22,9.85
MEDAK,Regode,T.lingampally,17.5471,77.49507,01/02/22,4.55
MEDAK,Shankarampet ,Gavvalapalli,17.971,78.372,01/02/22,8.4
MEDAK,Shankarampet R,Shankarampet,18.0517,77.9172,01/02/22,7.95
MEDAK,Shivampet,Shivampet,17.46539,78.22027,01/02/22,11.21
MEDAK,Shivampet,Gudur,17.7863,78.369999,01/02/22,16.78
MEDAK,Shivampet,Usrikapally,17.4916,78.23419,01/02/22,15.32
MEDAK,Tekmal,Tekmal,17.975399,78.0304,01/02/22,9.35
MEDAK,Toopran,Islampur,17.841299,78.4775,01/02/22,3.5
MEDAK,Toopran,Toopran,17.50275,78.28369,01/02/22,20.45
MEDAK,Yeldurthy,Edulapally,17.5656,78.21029,01/02/22,25.96
MEDAK,Yeldurthy,Kukunoor,17.55035,78.192,01/02/22,4.53
MEDAK,Yeldurthy,Ramayapally,17.56306,78.19438,01/02/22,6.47
MEDAK,Yeldurthy,Yeldurthy,,,01/02/22,
MEDAK,Alladurg,Peddapur,,,01/02/22,14.77
MEDAK,Chilipched,Chilipched,,,01/02/22,15.11
MEDAK,Haveli Ghanpur,Kuchanpally,,,01/02/22,7.52
MEDAK,Haveli Ghanpur,Nagapur,,,01/02/22,14.1
MEDAK,Haveli Ghanpur,Rajpet,,,01/02/22,5.65
MEDAK,Haveli Ghanpur,Sardana,,,01/02/22,9.5
MEDAK,Kulcharam,Kulcharam,,,01/02/22,7.03
MEDAK,Manoharabad,Muppireddypally,,,01/02/22,10.89
MEDAK,Masaipet,Masaipet,,,01/02/22,14.21
MEDAK,Medak,Pathur,,,01/02/22,11.92
MEDAK,Medak,Perur,,,01/02/22,8.28
MEDAK,Medak,Rajpally,,,01/02/22,16.18
MEDAK,Narsapur,Chippalthurthy,,,01/02/22,16.35
MEDAK,Narsapur,Kagazmaddur,,,01/02/22,15.03
MEDAK,Narsapur,Lingapur,,,01/02/22,12.2
MEDAK,Narsingi,Narsingi,,,01/02/22,20.6
MEDAK,Papannapet,Kodapaka,,,01/02/22,9.48
MEDAK,Ramayampet,Dharmaram,,,01/02/22,22.48
MEDAK,Ramayampet,Katriyal,,,01/02/22,11.45
MEDAK,Ramayampet,Ramayampet,,,01/02/22,10.1
MEDAK,Regode,Gajwada,,,01/02/22,24.56
MEDAK,Shankarampet-R,Dharpally,,,01/02/22,6.78
MEDAK,Shankarampet-R,Shankarampet-R,,,01/02/22,22.2
MEDAK,Shivampet,Sikindlapur,,,01/02/22,3.61
MEDAK,Tekmal,Dhannaram,,,01/02/22,12.14
MEDAK,Tekmal,Yellupet,,,01/02/22,6.02
MEDAK,Toopran,Malkapur,,,01/02/22,4.11
MEDAK,Toopran,Nagulapally,,,01/02/22,17.84
MEDCHAL,Alwal,Old Alwal,17.494,78.508,01/02/22,8.76
MEDCHAL,Bachupalli,Nizampet,17.52,78.38,01/02/22,5.1
MEDCHAL,Balanagar,Balanagar 1,17.466,78.448,01/02/22,5.29
MEDCHAL,Balanagar,Balanagar 2,17.466,78.448,01/02/22,6.12
MEDCHAL,Balanagar,Fethenagar,17.46,78.44,01/02/22,10.83
MEDCHAL,Dundigal,Dulapally,17.55,78.46,01/02/22,19.13
MEDCHAL,Dundigal,Dundigal,17.608,78.416,01/02/22,23.4
MEDCHAL,Dundigal,Shambhirpur,18.0188,79.7672,01/02/22,9.62
MEDCHAL,Ghatkesar,Ghatkesar,17.447,78.678999,01/02/22,3.83
MEDCHAL,Kapra,Balaji Nagar,17.547,78.547,01/02/22,10.67
MEDCHAL,Kapra,Cherlapally,17.468,78.611,01/02/22,2.29
MEDCHAL,Keesara,Kessara,17.484,78.575,01/02/22,
MEDCHAL,Keesara,Yadgarpally,17.549999,78.63,01/02/22,11.85
MEDCHAL,Kukatpally,Kaithalapur,17.47,78.4,01/02/22,4.65
MEDCHAL,Kukatpally,Kukatpally 1,17.481,78.397,01/02/22,11.42
MEDCHAL,Kukatpally,Kukatpally 2,17.49,78.39,01/02/22,8.02
MEDCHAL,Malkajgiri,Malkajgiri,17.448999,78.535,01/02/22,14.54
MEDCHAL,Medchal,Gundla pochampally,17.567,78.479999,01/02/22,9.66
MEDCHAL,Medchal,Medchal,17.626505,78.494569,01/02/22,2.83
MEDCHAL,Medchal,Pudur,,,01/02/22,
MEDCHAL,Qutubullapur,Gajularamaram 1,17.53,78.42,01/02/22,2.86
MEDCHAL,Qutubullapur,Gajularamaram 2,17.53,78.42,01/02/22,2.83
MEDCHAL,Qutubullapur,Jeedimetla,17.523611,78.442777,01/02/22,17.79
MEDCHAL,Qutubullapur,Qutubullapur 1,17.498,78.454999,01/02/22,
MEDCHAL,Qutubullapur,Qutubullapur 2,17.501944,78.462222,01/02/22,27.57
MEDCHAL,Qutubullapur,Shapurnagar,,,01/02/22,
MEDCHAL,shahmirpet,Jagamguda,17.615286,78.627757,01/02/22,
MEDCHAL,shahmirpet,Pothaipally,17.551,78.539999,01/02/22,9.36
MEDCHAL,shahmirpet,Shahmirpet,17.582999,78.573999,01/02/22,2.26
MEDCHAL,shahmirpet,Turkapally,17.667,78.594,01/02/22,2.25
MEDCHAL,Uppal,Uppal,17.408,78.584,01/02/22,9.73
MEDCHAL,MEDIPALLY,MEDIPALLY,,,01/02/22,8.87
MEDCHAL,Alwal,Yapral Sub station,,,01/02/22,13.18
MEDCHAL,Ghatkesar,Singapur Township Sub Station,,,01/02/22,8.81
MEDCHAL,Kapra,N.N Colony Kapra Sub Station,,,01/02/22,5.08
MEDCHAL,Kapra,Balaji Nagar Substation,,,01/02/22,3.39
MEDCHAL,Keesara ,Keesara Sub station,,,01/02/22,4.46
MEDCHAL,Keesara ,Jafarguda MPP School (Godumakunta),,,01/02/22,6.68
MEDCHAL,Kukatpally,Kukatpally MRO Office,,,01/02/22,43.44
MEDCHAL,Malkajgiri,Moula - Ali Sub station,,,01/02/22,10.16
MEDCHAL,Medchal,Dabilpur park in GP Layout,,,01/02/22,6.28
MEDCHAL,Medchal,Banda Madaram Sub station,,,01/02/22,9.58
MEDCHAL,Shamirpet,Ponnala ZPHS,,,01/02/22,7.98
MEDCHAL,Shamirpet,DevaraYamjal Near Mission Bhagirath Compound,,,01/02/22,6.17
MEDCHAL,Shamirpet,Ailayabad ZPHS,,,01/02/22,4.68
MEDCHAL,Uppal,Mallapur Sub Station             ,,,01/02/22,11.1
MEDCHAL,Medipally,Chengicharla Sub Station,,,01/02/22,15.46
MEDCHAL,Medipally,Medipally ZPHS,,,01/02/22,11.68
MEDCHAL,M.C.Pally,Laxmapur Sub Station,,,01/02/22,6.14
MULUGU,Eturu Nagaram,Eturu Nagaram (D),18.324,80.414,01/02/22,11.23
MULUGU,Eturu Nagaram,Eturu Nagaram (S),18.3374,80.423199,01/02/22,11.65
MULUGU,Govindaraopet,Pasra,18.207438,80.171524,01/02/22,4.32
MULUGU,Govindaraopet,Project Nagar,18.233333,80.183333,01/02/22,4.02
MULUGU,Kannaigudem,Kannaigudem,18.526299,80.345399,01/02/22,6.23
MULUGU,Mangapet,Kamalapuram,18.2659,80.474699,01/02/22,13.2
MULUGU,Mangapet,Mallur,18.2188,80.562,01/02/22,8.56
MULUGU,Mangapet,Rajupet,18.153899,80.6256,01/02/22,4.55
MULUGU,Mulugu,Jakkaram(D),18.16763889,79.88155556,01/02/22,16.15
MULUGU,Mulugu,Jakkaram(S),18.163199,79.8869,01/02/22,
MULUGU,Mulugu,Kasimdevpet,18.166099,79.9977,01/02/22,4.81
MULUGU,Mulugu,Mulugu,18.192199,79.942499,01/02/22,3.72
MULUGU,Tadvai,Beerelli,18.10219444,80.43202778,01/02/22,13.58
MULUGU,Tadvai,Gangaram,18.1755,80.3708,01/02/22,5.52
MULUGU,Tadvai,Lavvala,18.170699,80.2632,01/02/22,8.32
MULUGU,Tadvai,Medaram,18.3138,80.2458,01/02/22,4.12
MULUGU,Tadvai,Tadvai,18.2365,80.3146,01/02/22,8.24
MULUGU,Vankatapur,Laxmidevipet,18.2936,79.955899,01/02/22,2.38
MULUGU,Venkatapuram,Alubaka ***,18.20502778,80.67138889,01/02/22,7.02
MULUGU,Venkatapuram,Edira ***,18.13855556,80.73094444,01/02/22,4.48
MULUGU,Venkatapuram,Marikal,18.310623,80.499136,01/02/22,6.52
MULUGU,Venkatapuram,Nuguru ***,18.34036111,80.554,01/02/22,5.21
MULUGU,Wazeedu,Jagannadhapuram ***,18.43163889,80.50836111,01/02/22,10.62
MULUGU,Wazeedu,Peddagollagudem ***,18.48641667,80.46461111,01/02/22,9.42
MULUGU,Wazeedu,Perur ***,18.53205556,80.39388889,01/02/22,10.91
MULUGU,Wazeedu,Tekulagudem ***,18.56111111,80.40469444,01/02/22,9.45
NAGARKURNOOL,Achampet,Achampet,16.398306,78.651523,01/02/22,6.96
NAGARKURNOOL,Amarabad,Domalapenta,16.10322,78.89822,01/02/22,5.29
NAGARKURNOOL,Amarabad,Madhavanipally,16.37868889,78.86608333,01/02/22,8.18
NAGARKURNOOL,Amarabad,Mannanoor,16.374166,78.771666,01/02/22,13.38
NAGARKURNOOL,Amarabad,Vatverlapallly,,,01/02/22,
NAGARKURNOOL,Balmur,Balmur,16.331127,78.566382,01/02/22,12.28
NAGARKURNOOL,Balmur,Banala,16.32096389,78.63925556,01/02/22,11.73
NAGARKURNOOL,Balmur,Gattuthummena  ,16.40607778,78.553425,01/02/22,3.45
NAGARKURNOOL,Bijinepalli,Bijinepalli,16.535278,78.196422,01/02/22,9.73
NAGARKURNOOL,Charakonda,Charakonda,16.69554,78.71074,01/02/22,4.1
NAGARKURNOOL,Kalwakuthy,GUNDUR,,,01/02/22,3.78
NAGARKURNOOL,Kalwakuthy,Kalwakuthy,16.666999,78.488,01/02/22,7.33
NAGARKURNOOL,Kalwakuthy,Lingasanipally,16.5528,78.469399,01/02/22,
NAGARKURNOOL,Kalwakuthy,Marchala,16.691699,78.4542,01/02/22,16.17
NAGARKURNOOL,Kodair,Kodair,16.269624,78.274343,01/02/22,1.03
NAGARKURNOOL,Kodair,Thurkadinne,16.29225278,78.23323056,01/02/22,2.16
NAGARKURNOOL,Kollapur,Kollapur,16.106999,78.306,01/02/22,2.15
NAGARKURNOOL,Kollapur,Molachintalapally,16.1389,78.4181,01/02/22,3.09
NAGARKURNOOL,Lingal,Ambatipally,16.277,78.446,01/02/22,2.67
NAGARKURNOOL,Lingal,Lingal,16.2681,78.5208,01/02/22,5.75
NAGARKURNOOL,Nagarkurnool,Manthati,16.440149,78.351615,01/02/22,7.11
NAGARKURNOOL,Nagarkurnool,Nagarkurnool,16.491743,78.302619,01/02/22,16.79
NAGARKURNOOL,Padra,Padra,16.43365,78.87762,01/02/22,2.87
NAGARKURNOOL,Peddakothapally,Maredumandinne,16.21548333,78.40606389,01/02/22,3.46
NAGARKURNOOL,Pentlavelle,Pentlavelle,16.07544,78.2595,01/02/22,2.97
NAGARKURNOOL,Tadoor,Tadoor,16.515833,78.359999,01/02/22,
NAGARKURNOOL,Tadoor,Vengampally,16.544155,78.398824,01/02/22,4.22
NAGARKURNOOL,Telkapally,Karvanga,16.48838611,78.42719167,01/02/22,3.06
NAGARKURNOOL,Telkapally,Telkapally,16.435091,78.440307,01/02/22,2.09
NAGARKURNOOL,Thimmajipet,Gummakonda,16.6224,78.189999,01/02/22,8.3
NAGARKURNOOL,Uppununuthala,Laxmapur,16.45913889,78.59918333,01/02/22,4.25
NAGARKURNOOL,Uppununuthala,Uppununthala,16.450018,78.591328,01/02/22,5.81
NAGARKURNOOL,Urkonda,Urkonda,16.73127,78.41119,01/02/22,13.85
NAGARKURNOOL,Vangoor,Vangoor,16.612799,78.6225,01/02/22,3.04
NAGARKURNOOL,Veldanda,Veldanda,16.73106,78.5211,01/02/22,13.52
NALGONDA,Advidevulapally,Ulsaipalem,16.706822,79.499703,01/02/22,1.9
NALGONDA,Anumula,Anumula,16.77561111,79.27144444,01/02/22,7.01
NALGONDA,Anumula,Chintagudem,16.833094,79.292086,01/02/22,4.1
NALGONDA,Anumula,Pulimamidi,16.884037,79.267224,01/02/22,5
NALGONDA,Anumula,Rajavaram,16.70663889,79.40966667,01/02/22,7.69
NALGONDA,Anumula,Sreerampur,16.72222222,79.30194444,01/02/22,1.38
NALGONDA,Bommakal,Bommakal,,,01/02/22,
NALGONDA,Chandampet,Buddoni thanda,16.553849,78.962028,01/02/22,
NALGONDA,Chandampet,Chandampet,16.578477,78.888363,01/02/22,7.42
NALGONDA,Chandampet,Kambalapally,16.450582,79.114232,01/02/22,2.81
NALGONDA,Chandampet,Thelidevarapally,16.505545,78.969167,01/02/22,22.61
NALGONDA,Chandampet,Yelmalmanda,16.49277778,79.145,01/02/22,
NALGONDA,Chandur,Angadipet,16.98405556,79.02122222,01/02/22,3.77
NALGONDA,Chandur,Bangarigadda,16.98577778,79.01002778,01/02/22,3.95
NALGONDA,Chandur,Chandur,16.98047222,79.04952778,01/02/22,6.67
NALGONDA,Chandur,Chandur,,,01/02/22,1.94
NALGONDA,Chandur,Donipamula,16.983027,78.980496,01/02/22,
NALGONDA,Chandur,Ghattuppal,17.057975,78.915649,01/02/22,0.96
NALGONDA,Chandur,Nermata,17.00213889,78.98341667,01/02/22,5
NALGONDA,Chandur,Pullemla,17.02622222,79.02136111,01/02/22,7.18
NALGONDA,Chandur,Sirdepally,17.01602778,79.06169444,01/02/22,4
NALGONDA,Chinthapally,Kurmed Gate,16.892055,78.755194,01/02/22,5.7
NALGONDA,Chinthapally,Teeded,16.792111,78.909846,01/02/22,
NALGONDA,Chityala,Urumadla,17.182742,79.090249,01/02/22,4.11
NALGONDA,Chityala,Veliminedu,17.228916,79.020166,01/02/22,7.16
NALGONDA,Devarakonda,Kamalapur,16.72547222,78.86175,01/02/22,9.87
NALGONDA,Devarakonda,Konda Bheemanapally,16.69391667,78.86025,01/02/22,5.1
NALGONDA,Devarakonda,Padamtipally,16.68838889,78.80213889,01/02/22,7.58
NALGONDA,Devarakonda,Tatikole,16.65111111,78.85719444,01/02/22,7.13
NALGONDA,Gundlapally,Dhindi,16.552222,78.6925,01/02/22,5.41
NALGONDA,Gundlapally,Vavikole,16.66933333,78.75141667,01/02/22,2.23
NALGONDA,Gurrampode,Gurrampode,16.851709,79.091378,01/02/22,1.89
NALGONDA,Gurrampode,Koppole,16.91047222,79.15686111,01/02/22,2.24
NALGONDA,Gurrampode,Palvai,16.75244,79.024457,01/02/22,5.69
NALGONDA,K.Mallepally,K.Mallepally,16.729392,78.981033,01/02/22,3.84
NALGONDA,kanagala,kanagala,16.937341,79.198425,01/02/22,2.85
NALGONDA,Kattangur,Cheruvu Annaram,17.21844444,79.36608333,01/02/22,7.68
NALGONDA,Kattangur,Kattangur,17.161891,79.320303,01/02/22,3.25
NALGONDA,Kattangur,Pamangundla,17.180769,79.267943,01/02/22,6.37
NALGONDA,Kethepally,Kethepally,17.147211,79.511941,01/02/22,1.42
NALGONDA,Kompalli,Kompalli,17.09741667,79.00191667,01/02/22,
NALGONDA,Kurmed Gate,Kurmed Gate,,,01/02/22,
NALGONDA,Madugulapally,Kannekal,16.94138889,79.3875,01/02/22,4.62
NALGONDA,Marriguda,Antampet,17.036111,78.888888,01/02/22,6.75
NALGONDA,Marriguda,Khudabhaksh pally,17.02913889,78.83172222,01/02/22,11.06
NALGONDA,Marriguda,Lenkala pally,16.98722222,78.94816667,01/02/22,4.14
NALGONDA,Marriguda,Marriguda,16.94,78.86377778,01/02/22,3.96
NALGONDA,Marriguda,Namapur,17.02688889,78.92738889,01/02/22,1.09
NALGONDA,Marriguda,Sarampet,16.99188889,78.89580556,01/02/22,10.97
NALGONDA,Marriguda,Shivannagudam,17.00558333,78.8845,01/02/22,6.14
NALGONDA,Marriguda,Shivannagudam,16.99697222,78.88975,01/02/22,2.61
NALGONDA,Miryalguda,B.Annaram,16.778908,79.558144,01/02/22,0.24
NALGONDA,Miryalguda,Kothagudem,16.824506,79.598463,01/02/22,1.52
NALGONDA,Munugode,Kistapur,17.169309,79.024404,01/02/22,4.55
NALGONDA,Munugode,Kompalli,17.099308,78.993715,01/02/22,4.21
NALGONDA,Munugode,Munugode,17.065875,79.077438,01/02/22,4.15
NALGONDA,Nakrekal,Arlagaddagudam,17.13280556,79.37808333,01/02/22,12.43
NALGONDA,Nakrekal,Nakrekal,17.163631,79.429158,01/02/22,3.88
NALGONDA,Nakrekal,Palem,17.22166667,79.47133333,01/02/22,5.08
NALGONDA,Nakrekal,Vallabhapur,17.23494444,79.49755556,01/02/22,0.63
NALGONDA,Nalgonda,Mushampally,16.97492,79.32478,01/02/22,3.6
NALGONDA,Nalgonda,Nalgonda,17.038588,79.253982,01/02/22,
NALGONDA,Nalgonda,Narsingbhatla,17.016163,79.148493,01/02/22,4.8
NALGONDA,Nalgonda,Panagal,17.076937,79.311747,01/02/22,1.4
NALGONDA,Nalgonda,S L B C G V guda,17.060183,79.300907,01/02/22,2.37
NALGONDA,Nalgonda,Seetarampuram,17.110312,79.216751,01/02/22,5.85
NALGONDA,Nalgonda,Velugupally,16.991392,79.306945,01/02/22,4.25
NALGONDA,Narketpalli,Akkenepally,17.301,79.24425,01/02/22,2.63
NALGONDA,Narketpalli,Narketpalli,17.20025,79.191305,01/02/22,8.65
NALGONDA,Neredgomma,Kothapally,16.59344444,79.03491667,01/02/22,3.73
NALGONDA,Neredgomma,Neradugomma,16.597169,78.972569,01/02/22,11.26
NALGONDA,Nidamanuru,Nidamanur,16.830555,79.374999,01/02/22,5.2
NALGONDA,Nidamanuru,Thummadam,16.809982,79.42695,01/02/22,4.07
NALGONDA,P.A Pally,Angadipet,16.716555,79.084472,01/02/22,3.39
NALGONDA,P.A Pally,Azmapur,16.601486,79.0789,01/02/22,4.96
NALGONDA,P.Kondaram,P.Kondaram,,,01/02/22,
NALGONDA,Peddavoora,Peddavoora,16.74399,79.187767,01/02/22,2.73
NALGONDA,Peddavoora,Pulicherla,16.655305,79.174829,01/02/22,3.9
NALGONDA,Peddavoora,Velmaguda,16.764,79.20325,01/02/22,7.16
NALGONDA,Peddavoora,Vijayapuri North,16.58027778,79.31477778,01/02/22,15.03
NALGONDA,Shaligowraram,Baironibanda,17.301938,79.301465,01/02/22,14.87
NALGONDA,Shaligowraram,P.Kondaram,17.249444,79.423055,01/02/22,3.97
NALGONDA,Shaligowraram,Vallala,17.24661111,79.389,01/02/22,4.83
NALGONDA,Thiparthy,Pedda Suraram,17.08380556,79.33866667,01/02/22,6
NALGONDA,Thiparthy,Thipparthy,17.01375,79.418305,01/02/22,1.14
NALGONDA,Thiparthy,Mamidala,17.070712,79.47315,01/02/22,5.45
NALGONDA,Tirumalagiri(Sagar),Nellikal,16.649373,79.301538,01/02/22,25.19
NALGONDA,Vemulapally,Bommakal,17.03225,79.52422222,01/02/22,3.5
NALGONDA,Vemulapally,Settipalem,16.951483,79.554738,01/02/22,7.15
NARAYANPET,Damargidda,Kanukurthy,16.889856,77.470614,01/02/22,7.1
NARAYANPET,DHANWADA ,DHANWADA ,16.639525,77.658409,01/02/22,4.2
NARAYANPET,Kosigi,Kosigi,16.984631,77.705505,01/02/22,5.45
NARAYANPET,Krishna,Chegunta,16.477596,77.311796,01/02/22,7.58
NARAYANPET,Krishna,Hindhupur,16.415,77.34563,01/02/22,4.34
NARAYANPET,Maddur,Maddur,16.857,77.607,01/02/22,9.93
NARAYANPET,Maganur,Maganur,16.458515,77.431209,01/02/22,3.25
NARAYANPET,Makthal,Makthal,16.500518,77.500096,01/02/22,3.35
NARAYANPET,Marikal,Marikal,16.592044,77.698167,01/02/22,10.88
NARAYANPET,Narayanpet,Appireddypally  ,16.73403,77.57334,01/02/22,7.05
NARAYANPET,Narayanpet,Kollampally,16.680069,77.631447,01/02/22,4.48
NARAYANPET,Narayanpet,Kotakonda,16.758081,77.642021,01/02/22,4.1
NARAYANPET,Narayanpet,Narayanapet,16.7423,77.481199,01/02/22,5.25
NARAYANPET,Narva,Narva,16.4706,77.656699,01/02/22,6.89
NARAYANPET,Utkoor,Pulimamidi,16.58111,77.552755,01/02/22,5.32
NARAYANPET,Utkoor,Utkoor,16.6407,77.5003,01/02/22,3.25
NARAYANPET,Utkoor,Chinnaporla,16.591504,77.536202,01/02/22,3.85
NIRMAL,Dilawarpur,Dilawarpur,19.092306,78.22198,01/02/22,6.86
NIRMAL,Kadam,Kadam,19.09747,78.77456,01/02/22,1.5
NIRMAL,Khanapur,Khanapur,19.047089,78.662131,01/02/22,6.85
NIRMAL,Kubeer,Kubeer,19.2495,77.945833,01/02/22,3.8
NIRMAL,Kuntala,Kuntala,19.169299,78.1004,01/02/22,9.72
NIRMAL,Laxmanchanda,Laxmanchanda,19.017055,78.460861,01/02/22,4.6
NIRMAL,Lokeswaram,Abdullapur,18.9703,78.0378,01/02/22,10.75
NIRMAL,Lokeswaram,Lokeswaram,19.024499,78.0899,01/02/22,7.21
NIRMAL,Lokeswaram,Manmad,19.061111,78.115833,01/02/22,14.9
NIRMAL,Mamada,Mamada,19.077972,78.522916,01/02/22,3.9
NIRMAL,Mudhole,Mudhole,18.977199,77.916699,01/02/22,7.5
NIRMAL,Narsapur ,Narsapur,19.109799,78.1653,01/02/22,5.81
NIRMAL,Nirmal,Nirmal,19.092416,78.343527,01/02/22,2.7
NIRMAL,Pembi,Pembi,19.1885,78.6374,01/02/22,2.91
NIRMAL,Sarangapur,Beeravelly,19.139638,78.261972,01/02/22,8.9
NIRMAL,Sarangapur,Ponkur (Swarna),19.246611,78.215138,01/02/22,9.9
NIRMAL,Tanur,Bhosi,19.109333,77.879444,01/02/22,8.05
NIRMAL,BASAR,BASAR,,,01/02/22,8.8
NIRMAL,BHAINSA,BHAINSA,,,01/02/22,3.63
NIRMAL,BHAINSA,KAMOLE,,,01/02/22,12.7
NIRMAL,BHAINSA,MATEGAON-B,,,01/02/22,6.91
NIRMAL,DASTURABAD,DASTURABAD,,,01/02/22,3.35
NIRMAL,DASTURABAD,GONDSERIALA,,,01/02/22,1.46
NIRMAL,DILAWARPUR,MALLAPUR,,,01/02/22,9.7
NIRMAL,KADDAM,CHINNABELLAL,,,01/02/22,11.33
NIRMAL,KADDAM,LAXMIPUR,,,01/02/22,5.86
NIRMAL,KADDAM,LINGAPUR,,,01/02/22,3.6
NIRMAL,KADDAM,ALLAMPALLY,,,01/02/22,7.62
NIRMAL,KADDAM,GANDIGOPALPUR,,,01/02/22,5.76
NIRMAL,KHANAPUR,BEERNANDI,,,01/02/22,1.4
NIRMAL,KHANAPUR,RAJURA,,,01/02/22,4.23
NIRMAL,KHANAPUR,SURJAPUR,,,01/02/22,6.65
NIRMAL,KUBEER,PANGRA,,,01/02/22,13.1
NIRMAL,KUNTALA,KALLUR,,,01/02/22,16.05
NIRMAL,LOKESWARAM,DHARMORA,,,01/02/22,7.6
NIRMAL,LOKESWARAM,PUSPUR,,,01/02/22,8.35
NIRMAL,MAMADA,PONKAL,,,01/02/22,3.4
NIRMAL,MAMADA,TANDRA,,,01/02/22,12.28
NIRMAL,MUDHOLE,CHINCHALA,,,01/02/22,6.4
NIRMAL,PEMBI,LOTHAR THANDA,,,01/02/22,7
NIRMAL,SOAN,PAKPATLA,,,01/02/22,2.54
NIRMAL,TANUR,TANUR,,,01/02/22,6.3
NIZAMABAD,Armoor,Macharla,18.5154,78.1319,01/02/22,2.58
NIZAMABAD,Armoor,perkit,18.807999,78.314999,01/02/22,7.31
NIZAMABAD,Bheemgal,Bheemgal,18.714999,78.442,01/02/22,12.87
NIZAMABAD,Bheemgal,Gongoppula,18.3818,78.2537,01/02/22,23.11
NIZAMABAD,Bheemgal,Jagiryal,18.4355,78.2623,01/02/22,4.89
NIZAMABAD,Bheemgal,Mendora,18.4316,78.3022,01/02/22,8.42
NIZAMABAD,Bheemgal,Thallapally,18.3828,78.334,01/02/22,19.25
NIZAMABAD,Bodhan,Bodhan,18.670499,77.892499,01/02/22,5.82
NIZAMABAD,Bodhan,Chinnamavandi,,,01/02/22,22.84
NIZAMABAD,Bodhan,Saloor,,,01/02/22,2.97
NIZAMABAD,Darpally,Ramadugu,18.613,78.309,01/02/22,4.29
NIZAMABAD,Darpally,Honnajipet,18.322,78.2323,01/02/22,7.07
NIZAMABAD,Dichpally,Yanampally,18.627,78.249,01/02/22,8.13
NIZAMABAD,Indalwai,Gannaram,18.512497,78.234885,01/02/22,5.17
NIZAMABAD,Jakrampally,Jakrampally,18.707199,78.271599,01/02/22,7.21
NIZAMABAD,Kammarapalli,Choutpalli,18.7753,78.5416,01/02/22,2.78
NIZAMABAD,Kammarapalli,Inayathnagar,18.4268,78.3311,01/02/22,5.54
NIZAMABAD,Kammarapalli,Kammarpally,18.4925,78.3036,01/02/22,12.66
NIZAMABAD,Kotagiri,Kotagiri,18.575,77.830299,01/02/22,10.3
NIZAMABAD,Kotagiri,Kallur,,,01/02/22,8.32
NIZAMABAD,Kotagiri,Takli,18.3755,77.4752,01/02/22,10.56
NIZAMABAD,Makloor,Madanapally,18.680999,78.178,01/02/22,10.93
NIZAMABAD,Makloor,Makloor,18.7517,78.124822,01/02/22,12.76
NIZAMABAD,Mendora,Mendora,18.5653,78.242,01/02/22,4.8
NIZAMABAD,Morthad,Morthad,18.825999,78.449,01/02/22,14.06
NIZAMABAD,Mugpal,Manchippa,18.538999,78.114,01/02/22,2.97
NIZAMABAD,Mupkal,Mupkal,18.912998,78.361616,01/02/22,15.13
NIZAMABAD,Mupkal,Renjarla,18.5358,78.2508,01/02/22,7.18
NIZAMABAD,Nandipet,Ailapoor,18.853,78.114,01/02/22,8.05
NIZAMABAD,Nandipet,Badguni,18.569,78.88,01/02/22,12.58
NIZAMABAD,Nandipet,Nutpally,18.936499,78.218199,01/02/22,4.55
NIZAMABAD,Nandipet,Velmal,18.826388,78.159444,01/02/22,17.87
NIZAMABAD,Navipet,Fakeerabad,,,01/02/22,
NIZAMABAD,Navipet,Nizampur,18.5146,78.31,01/02/22,5.81
NIZAMABAD,Navipet,Yemcha,18.516,78.583,01/02/22,7.2
NIZAMABAD,Nizamabad,Arsapally,18.685342,78.06863,01/02/22,3.87
NIZAMABAD,Nizamabad Rural,Malkapur,18.4352,78.31,01/02/22,13.57
NIZAMABAD,Renjal,Dupally,18.732999,77.990999,01/02/22,16.16
NIZAMABAD,Renjal,Satapoor,18.747833,77.930703,01/02/22,9.38
NIZAMABAD,Rudrur,Rayakur,18.610199,77.8575,01/02/22,7.81
NIZAMABAD,Sirikonda,Cheemanpally,18.335,78.323,01/02/22,13.6
NIZAMABAD,Sirikonda,Gadkole,18.323,78.2623,01/02/22,16.16
NIZAMABAD,Sirikonda,Pakala,18.3041,78.306,01/02/22,16.63
NIZAMABAD,Sirikonda,Peddavolgote,18.604,78.426,01/02/22,2.2
NIZAMABAD,Sirikonda,Sirikonda,18.3447,78.2733,01/02/22,17.18
NIZAMABAD,Sirikonda,Thumpally,18.2833,78.294,01/02/22,7.51
NIZAMABAD,Tadvai,Aragonda,,,01/02/22,
NIZAMABAD,Vailpoor,Ankushpur,18.811,78.395999,01/02/22,7.85
NIZAMABAD,Vailpoor,Vailpoor,18.772999,78.386,01/02/22,11.62
NIZAMABAD,Varni,Rudrur,,,01/02/22,4.21
NIZAMABAD,Varni,Jalalpur,,,01/02/22,8.49
NIZAMABAD,Varni,Varni,18.3114,77.5327,01/02/22,6.35
NIZAMABAD,Yedapalli,Yedapalli,18.677999,77.954,01/02/22,9.96
NIZAMABAD,Yergatla,Yergatla,18.5426,78.2857,01/02/22,5.54
NIZAMABAD,Armoor,Ankapur,78.242,,01/02/22,9.72
NIZAMABAD,Armoor,Manthini,78.254,,01/02/22,8.28
NIZAMABAD,Balkonda,Balkonda,78.3485,,01/02/22,5.75
NIZAMABAD,Balkonda,Vannel (B),78.3782,,01/02/22,9.06
NIZAMABAD,Bheemgal,Bada Bheemgal,78.4026,,01/02/22,7.75
NIZAMABAD,Bheemgal,Kupkal,78.5061,,01/02/22,6.57
NIZAMABAD,Bheemgal,Pallykonda,78.4794,,01/02/22,8.95
NIZAMABAD,Bodhan,Sangam,77.9114,,01/02/22,18.45
NIZAMABAD,Dharpally,Kotalpally,78.3599,,01/02/22,5.01
NIZAMABAD,Dichpally,Dichpally,78.1937,,01/02/22,9.55
NIZAMABAD,Indalwai,Indalwai,78.2493,,01/02/22,5.41
NIZAMABAD,Jakranpally,Thorikonda,78.3107,,01/02/22,6.7
NIZAMABAD,Mendora,Doodgaon,78.3739,,01/02/22,2.97
NIZAMABAD,Morthad,Palem,78.4401,,01/02/22,7.11
NIZAMABAD,Mosra,Mosra,77.9776,,01/02/22,9.84
NIZAMABAD,Mugpal,Mugpal,78.1218,,01/02/22,18.8
NIZAMABAD,Nandipet,Donkeswar,78.1855,,01/02/22,1.74
NIZAMABAD,Nandipeta,Talweda,78.094,,01/02/22,7.79
NIZAMABAD,Nizamabad North,Dubba,78.1039,,01/02/22,12.35
NIZAMABAD,Nizamabad North,Kanteswar,78.1105,,01/02/22,12.25
NIZAMABAD,Nizamabad Rural,Gupanpally,78.1346,,01/02/22,17.08
NIZAMABAD,Nizamabad Rural,Palda,78.0822,,01/02/22,12.61
NIZAMABAD,Nizamabad South,Shivajinagar,78.0898,,01/02/22,14.42
NIZAMABAD,Renjal,Dandigutta,77.9766,,01/02/22,26.08
NIZAMABAD,Sirikonda,Chinna Volgate,78.4451,,01/02/22,16.15
NIZAMABAD,Sirikonda,Musheernagar,78.4144,,01/02/22,17.06
NIZAMABAD,Velpoor,Pachal Narkuda,78.3718,,01/02/22,12.91
NIZAMABAD,Velpoor,Ramannapet,78.4382,,01/02/22,6.77
NIZAMABAD,Yedapally,Thanakalan,78.007,,01/02/22,0.98
NIZAMABAD,Yeragatla,Gumriyal,78.5152,,01/02/22,2.17
PEDDAPALLY,Antergaon,Goliwada,18.833305,79.420027,01/02/22,6.69
PEDDAPALLY,Dharmaram,Dharmaram,18.7453,79.187199,01/02/22,5.66
PEDDAPALLY,Dharmaram,Khilavanparthy,18.703666,79.27625,01/02/22,3.29
PEDDAPALLY,Eligedu,Eligedu,18.552157,79.260942,01/02/22,4.17
PEDDAPALLY,Julapalli,Julapalli,18.620499,79.2492,01/02/22,4.39
PEDDAPALLY,Kamanpur,Rompikunta,18.669583,79.480861,01/02/22,3.65
PEDDAPALLY,Manthani,Eglaspur,18.646138,79.690944,01/02/22,21.97
PEDDAPALLY,Manthani,Gunjapadugu,18.686694,79.604833,01/02/22,14.7
PEDDAPALLY,Manthani,Khansaipet,18.665719,79.731276,01/02/22,6.58
PEDDAPALLY,Manthani,Manthani ,18.65,79.666666,01/02/22,13.6
PEDDAPALLY,Manthani,Venkatapur,18.654638,79.801555,01/02/22,11.13
PEDDAPALLY,Mutharam (Man),Khammampally,18.557083,79.699611,01/02/22,6.92
PEDDAPALLY,Odella,Odella,18.4528,79.46,01/02/22,4.51
PEDDAPALLY,Peddapalli,Peddapalli,18.6017,79.389999,01/02/22,5.29
PEDDAPALLY,Ramagundam,Palakurthy,18.61652778,79.38755556,01/02/22,5.04
PEDDAPALLY,Ramagundam,Ramagundam,18.759388,79.506611,01/02/22,1.27
PEDDAPALLY,Srirampuram,Srirampuram,18.484581,79.526019,01/02/22,6.57
RANGAREDDY,Chevella,Alur,17.323999,78.064,01/02/22,8.42
RANGAREDDY,Amangal,Amangal,16.844199,78.5425,01/02/22,5.94
RANGAREDDY,Shabad,Antharam,17.471,78.326,01/02/22,5.38
RANGAREDDY,Balapur,Balapur (Leninnagar),17.3213,78.518,01/02/22,6.83
RANGAREDDY,Abdullapurmet,Batasingaram,17.301,78.7246,01/02/22,2.63
RANGAREDDY,Kondurgu,Bhairampally,17.119399,78.075,01/02/22,5.53
RANGAREDDY,Manchal,Bodakonda,17.061999,78.768999,01/02/22,3.81
RANGAREDDY,Chevella,Dharmasagar,17.336,78.154,01/02/22,13.02
RANGAREDDY,Ibrahimpatnam,Elimenadu,17.149,78.599,01/02/22,7.12
RANGAREDDY,Serilingampally,Gachibowli,17.43,78.367999,01/02/22,
RANGAREDDY,Madgula,Irvin,16.779781,78.715601,01/02/22,4.25
RANGAREDDY,Kadthal,Kadthal,16.975,78.5022,01/02/22,11.9
RANGAREDDY,Kandukur,Kandukur,17.079999,78.48,01/02/22,4.88
RANGAREDDY,Kadthal,Karkalpad,16.9291,78.5275,01/02/22,5.71
RANGAREDDY,Keshampet,Keshampet,16.943945,78.329383,01/02/22,8.77
RANGAREDDY,Moinabad,Kethereddipally,17.276,78.222999,01/02/22,10.13
RANGAREDDY,Ibrahimpatnam,Kongarkalan,17.203999,78.544999,01/02/22,7.96
RANGAREDDY,Kothur,Kothur,17.1587,78.287899,01/02/22,6.56
RANGAREDDY,Madgula,Kulkulpally,16.906166,78.725869,01/02/22,9.92
RANGAREDDY,Abdullapurmet,Kuntloor,17.3403,78.6266,01/02/22,4.93
RANGAREDDY,Madgula,Madgula,16.843335,78.687875,01/02/22,7.9
RANGAREDDY,Maheswaram,Maheswaram,17.135,78.439,01/02/22,10.31
RANGAREDDY,Shamshabad,Malkaram,17.256,78.282,01/02/22,11.63
RANGAREDDY,Manchal,Manchal,17.16,78.738999,01/02/22,2.73
RANGAREDDY,Ibrahimpatnam,Mangalpally,17.22,78.598,01/02/22,5.92
RANGAREDDY,Moinabad,Moinabad,17.33,78.289999,01/02/22,4.33
RANGAREDDY,Balapur,Nadhargull,17.2728,78.5401,01/02/22,4.65
RANGAREDDY,Shamshabad,Ootlapally,17.249999,78.367999,01/02/22,6.53
RANGAREDDY,Shamshabad,Palmokole,17.203999,78.300999,01/02/22,7
RANGAREDDY,Maheswaram,Pondiyala,17.12522,78.381701,01/02/22,3.83
RANGAREDDY,Rajender Nagar,Rajender Nagar,17.315999,78.405,01/02/22,9.07
RANGAREDDY,Farooqnagar,Shadnagar,17.0714,78.2052,01/02/22,15.3
RANGAREDDY,Shahbad,Shahbad,17.201999,78.103999,01/02/22,9.74
RANGAREDDY,Shankarpalli,Shankarpalli,17.452999,78.131,01/02/22,12.98
RANGAREDDY,Kothur,Siddapur,17.0514,78.351399,01/02/22,5.88
RANGAREDDY,Talakondapalli,Talakondapalli,16.889999,78.413,01/02/22,14.3
RANGAREDDY,Kothur,Teegapur,17.163899,78.2722,01/02/22,7.95
RANGAREDDY,Yacharam,Tumotoniguda (Mall),16.992,78.701,01/02/22,4.33
RANGAREDDY,Chouderigudem,Vanampalli,17.1195,78.0086,01/02/22,5.77
RANGAREDDY,Yacharam,Yacharam,17.05,78.67,01/02/22,5.42
RANGAREDDY,Shankarpalli,Yeravaguda,17.408999,78.127,01/02/22,3.9
RANGAREDDY,ABDULLAPURMET,ABDULLAPURMET,,,01/02/22,6.06
RANGAREDDY,ABDULLAPURMET,TURKAYAMJAL,,,01/02/22,5.96
RANGAREDDY,CHEVELLA,KANDAWADA,,,01/02/22,9.42
RANGAREDDY,CHOUDERIGUDEM,THUMMALAPALLY,,,01/02/22,12.86
RANGAREDDY,CHOUDERIGUDEM,VEERANNAPET,,,01/02/22,6.39
RANGAREDDY,FAROOQNAGAR,BURGULA,,,01/02/22,4.71
RANGAREDDY,FAROOQNAGAR,CHINCHODE,,,01/02/22,3.53
RANGAREDDY,GANDIPET,NARSINGI,,,01/02/22,8.28
RANGAREDDY,IBRAHIMPATNAM,DANDU MAILARAM,,,01/02/22,8.81
RANGAREDDY,IBRAHIMPATNAM,IBRAHIMPATNAM,,,01/02/22,14.18
RANGAREDDY,KADTHAL,MUDVIN,,,01/02/22,9.9
RANGAREDDY,KANDUKUR,MEERKHANPET,,,01/02/22,3.2
RANGAREDDY,KANDUKUR,RACHALUR,,,01/02/22,4.17
RANGAREDDY,KESHAMPET,IPPALAPALLY,,,01/02/22,2.55
RANGAREDDY,KONDURGU,KONDURGU,,,01/02/22,7.25
RANGAREDDY,KOTHUR,INMULNARVA,,,01/02/22,4.1
RANGAREDDY,KOTHUR,KOTHUR,,,01/02/22,5.99
RANGAREDDY,KOTHUR,PENJERLA,,,01/02/22,10.5
RANGAREDDY,MAHESHWARAM,AMEERPET,,,01/02/22,11.71
RANGAREDDY,MAHESHWARAM,MANKAL,,,01/02/22,6.91
RANGAREDDY,MOINABAD ,HIMAYATHSAGAR,,,01/02/22,8.5
RANGAREDDY,SERILINGAMPALLY,GOPANPALLY,,,01/02/22,8.82
RANGAREDDY,SHAHBAD ,CHANDANVELLY,,,01/02/22,9.8
RANGAREDDY,SHAMSHABAD,PEDDA SHAPOOR,,,01/02/22,5.72
RANGAREDDY,SHANKERPALLY,MOKILA,,,01/02/22,14.59
RANGAREDDY,YACHARAM ,NANDIWANAPARTHI,,,01/02/22,2.54
SANGAREDDY,Ameenpur,Kistareddypet,17.324946,78.172213,01/02/22,1.3
SANGAREDDY,Andole,Jogipet,17.835805,78.072972,01/02/22,11.37
SANGAREDDY,Gummadiddla,Annaram,17.629631,78.376086,01/02/22,18.44
SANGAREDDY,Gummadiddla,Gummadiddla,17.41055,78.220442,01/02/22,12.71
SANGAREDDY,Hathnoora,Borapatla,17.304717,78.103869,01/02/22,18.61
SANGAREDDY,Hathnoora,Nasthipur,17.4244,78.130672,01/02/22,24.36
SANGAREDDY,Jarasangam,Jarasangam,17.761111,77.713888,01/02/22,6.69
SANGAREDDY,Jinnaram,Ootla,17.375878,78.191979,01/02/22,8.77
SANGAREDDY,Kalher,Bachapally,18.081896,77.520472,01/02/22,11.23
SANGAREDDY,Kalher,Masanpalli,18.172314,77.875417,01/02/22,5.39
SANGAREDDY,Kalher,Meerkhanpally,16.082961,77.513977,01/02/22,6.95
SANGAREDDY,Kandi,Byathole,17.363981,88.112123,01/02/22,12.54
SANGAREDDY,Kandi,Cherlagudem,17.31153,78.0524,01/02/22,5.45
SANGAREDDY,Kangti,Kangti,18.222499,77.615555,01/02/22,6.75
SANGAREDDY,Koheer,Kothur (D),17.605555,77.720833,01/02/22,10.98
SANGAREDDY,Kondapur,Kondapur,17.550843,78.011197,01/02/22,18.42
SANGAREDDY,Manoor,Manoor,17.979166,77.736111,01/02/22,9.58
SANGAREDDY,Mogudampally,Mogudampally,17.613891,77.505361,01/02/22,8.82
SANGAREDDY,Munipally,Budera,17.6289,77.8408,01/02/22,3.36
SANGAREDDY,Nagalgidda,Pusalpad,17.5845,77.441,01/02/22,9.78
SANGAREDDY,Narayankhed,Abbenda,18.052181,77.714243,01/02/22,
SANGAREDDY,Narayankhed,Narayanakhed,18.0231,77.46116,01/02/22,6.27
SANGAREDDY,Nyalkal,Hadnoor - s,17.8033,77.626099,01/02/22,8.62
SANGAREDDY,Patancheru ,Isnapur,17.563079,78.198536,01/02/22,11.44
SANGAREDDY,Patancheru ,Patancheruvu,17.525833,78.270166,01/02/22,12.21
SANGAREDDY,Pulkal,Kodur,17.444246,77.590221,01/02/22,9.16
SANGAREDDY,Pulkal,Muddaipet,17.452277,77.582361,01/02/22,6.81
SANGAREDDY,Pulkal,Pulkal,17.719063,77.986731,01/02/22,7.08
SANGAREDDY,R.C.Puram,R.C.Puram,17.509099,78.3003,01/02/22,13.31
SANGAREDDY,Raikode,Chimnapur,17.51432,77.43304,01/02/22,5.86
SANGAREDDY,Sadasivpet,Sadasivpet,17.37103,77.57244,01/02/22,11.2
SANGAREDDY,Sangareddy,Sangareddy,17.597199,78.0782,01/02/22,31.28
SANGAREDDY,Sirgapoor,Wasar,18.08037,77.39595,01/02/22,13.1
SANGAREDDY,Vatpally,Vatpally,17.54308,77.52368,01/02/22,4.85
SANGAREDDY,Zaheerabad,Ranzole-I,17.675599,77.6561,01/02/22,13.75
SIDDIPET,Akkannapet,Jangaon,,,01/02/22,7.31
SIDDIPET,Bejjanki,Dacharam,18.251222,79.056861,01/02/22,2.95
SIDDIPET,Bejjanki,Guggilla,18.200666,79.060611,01/02/22,7.89
SIDDIPET,Bejjanki,Mylaram,,,01/02/22,8.17
SIDDIPET,Bejjanki,Vodlur Begampet,18.321326,79.042599,01/02/22,5.42
SIDDIPET,Cherila,Cherila,,,01/02/22,3.01
SIDDIPET,Cherila,Gurijakunta,17.9561,78.965,01/02/22,3.9
SIDDIPET,Cherila,Nagapuri,,,01/02/22,8.18
SIDDIPET,Cherila,Veerannapet,,,01/02/22,2.32
SIDDIPET,Chinnakodur,Allipur,18.237699,78.9237,01/02/22,16.11
SIDDIPET,Chinnakodur,Ananthasagar,18.1846,79.002099,01/02/22,8.54
SIDDIPET,Chinnakodur,Machapur,,,01/02/22,
SIDDIPET,Chinnakodur,Peddakodur,18.1488,78.8894,01/02/22,6.75
SIDDIPET,Doulthabad ,Mubaraspur,,,01/02/22,17.67
SIDDIPET,Dubbak,Chittapur,18.1308,78.6203,01/02/22,15.07
SIDDIPET,Dubbak,Dubbak,,,01/02/22,
SIDDIPET,Dubbak,Gambeerpur,18.2285,78.608099,01/02/22,19.91
SIDDIPET,Dubbak,Peddacheekode,18.2143,78.6304,01/02/22,9.77
SIDDIPET,Dubbak,Pothireddypet,,,01/02/22,11.58
SIDDIPET,Gajwel,Gajwel,17.8447,78.6847,01/02/22,14.73
SIDDIPET,Husnabad,Husnabad,18.129166,79.204166,01/02/22,4.05
SIDDIPET,Jagdevpur,Munigadapa,17.8133,78.824199,01/02/22,5.27
SIDDIPET,Jagdevpur,Chatlapally,17.8506,78.8582,01/02/22,8.49
SIDDIPET,Jagdevpur,Dharmaram,17.715499,78.8135,01/02/22,12.16
SIDDIPET,Jagdevpur,Itkal,17.763,78.774699,01/02/22,
SIDDIPET,Jagdevpur,Kondapur,17.786099,78.849099,01/02/22,6.44
SIDDIPET,Jagdevpur,T.Narsapur,17.857299,78.863199,01/02/22,2.67
SIDDIPET,Koheda,Koheda,18.1686,79.0936,01/02/22,3.52
SIDDIPET,Koheda,Varikolu,18.255361,79.109805,01/02/22,4.8
SIDDIPET,Komaravelli,Komaravelli,,,01/02/22,8.13
SIDDIPET,Komaravelli,Ainapur,,,01/02/22,4.46
SIDDIPET,Komaravelli,Gouraipally,17.880712,78.851505,01/02/22,4.42
SIDDIPET,Komaravelli,Komuravelli,17.9277,78.895499,01/02/22,
SIDDIPET,Kondapak,Ankireddypally,,,01/02/22,3.94
SIDDIPET,Kondapak,Sir singandla,,,01/02/22,5.91
SIDDIPET,Madoor,Bekkal,17.988387,79.10353,01/02/22,1.95
SIDDIPET,Madoor,Madoor,17.9307,79.0503,01/02/22,12.43
SIDDIPET,Madoor,Salakpur,,,01/02/22,5.91
SIDDIPET,Markood,Markood,,,01/02/22,12.82
SIDDIPET,Mirdoddi,Bhoompalli,18.1208,78.597199,01/02/22,6.55
SIDDIPET,Mirdoddi,Jangapally,,,01/02/22,13.93
SIDDIPET,Mulugu,Mulugu,17.721399,78.6333,01/02/22,35.41
SIDDIPET,Mulugu,Adivimajid,17.7059,78.6755,01/02/22,14.81
SIDDIPET,Mulugu,Zaptisingaipally,,,01/02/22,6.69
SIDDIPET,Nanganur,Katha,18.017861,79.070666,01/02/22,1.76
SIDDIPET,Nanganur,Kodarajpally,18.03879,79.092646,01/02/22,8.86
SIDDIPET,Nanganur,Rampur,18.088799,78.992499,01/02/22,9.31
SIDDIPET,Raipole,Raipole,17.925599,78.6181,01/02/22,12.86
SIDDIPET,Siddipet,Siddipet,18.103299,78.837499,01/02/22,9.9
SIDDIPET,Siddipet,Ragavapur,,,01/02/22,16.53
SIDDIPET,Siddipet,Tornal,18.115799,78.751299,01/02/22,10.22
SIDDIPET,Thoguta,Kuknoorpally,,,01/02/22,13.76
SIDDIPET,Wargal,Majidpalli,17.823299,78.586599,01/02/22,1.8
SIRCILLA,Boinpally,Korem,18.5315,78.914599,01/02/22,3.34
SIRCILLA,Boinpally,Kothapet (NC),18.41936111,78.97238889,01/02/22,7.14
SIRCILLA,Chandurthy,Chandurthy,18.572416,78.777805,01/02/22,3.92
SIRCILLA,Gambhiraopet,Gajasingaram,18.38488889,78.57305556,01/02/22,4.78
SIRCILLA,Gambhiraopet,Kothapally,18.253361,78.581888,01/02/22,10.79
SIRCILLA,Gambhiraopet,Narmal,18.283725,78.552568,01/02/22,5.47
SIRCILLA,Illanthakunta,Ananthagiri,18.267336,78.903132,01/02/22,3.45
SIRCILLA,Illanthakunta,Illanthukunta ,18.311944,78.956388,01/02/22,11.33
SIRCILLA,Illanthakunta,Kandikatkur,18.373722,78.964305,01/02/22,3.25
SIRCILLA,Illanthakunta,Repaka,18.264083,78.976055,01/02/22,5.02
SIRCILLA,Konaraopet,Dharmaram,18.44830556,78.74,01/02/22,6.71
SIRCILLA,Konaraopet,Kolanur,18.41977778,78.778,01/02/22,9.58
SIRCILLA,Konaraopet,Kondapur,18.512108,78.698962,01/02/22,6.52
SIRCILLA,Konaraopet,Mamidipalli,18.499277,78.757555,01/02/22,7.09
SIRCILLA,Konaraopet,Nizamabad,18.4703,78.7189,01/02/22,7.66
SIRCILLA,Konaraopet,Suddala,18.46788889,78.79275,01/02/22,3.14
SIRCILLA,Mustabad,Avunoor,18.350277,78.716996,01/02/22,13.85
SIRCILLA,Mustabad,Kondapur,18.342888,78.683888,01/02/22,6.33
SIRCILLA,Sircilla,Sircilla(urban),18.4056,78.8267,01/02/22,8.48
SIRCILLA,Thangalapally,Rallapet,18.35458333,78.78244444,01/02/22,9.01
SIRCILLA,Thangalapally,Ramchandrapaur,18.27797222,78.82316667,01/02/22,0.81
SIRCILLA,Veernapally,Garjanapalle,18.526722,78.610861,01/02/22,8.98
SIRCILLA,Veernapally,Veernapally,18.465589,78.60137,01/02/22,9.11
SIRCILLA,Vemulawada,Chekkapalli,18.533099,78.8599,01/02/22,3.91
SIRCILLA,Vemulawada,Vemulawada(rural),18.486422,78.863888,01/02/22,10.93
SIRCILLA,Yellareddipet,Racherla Boppaspur,18.377197,78.616814,01/02/22,3.43
SIRCILLA,Yellareddipet,Rajannapet,18.402899,78.642499,01/02/22,2.45
SURYAPET,Arvapally,Jajireddigudem,17.329188,79.49963,01/02/22,4.13
SURYAPET,Arvapally,Kodur,17.316549,79.622842,01/02/22,8.13
SURYAPET,Arvapally,Nagaram,17.386693,79.496965,01/02/22,1.36
SURYAPET,Atmakur(s),Aipur,17.275805,79.727555,01/02/22,4.97
SURYAPET,Chilkur,Bethevole,16.968099,79.812029,01/02/22,1.42
SURYAPET,Chilkur,Chilkuru,16.952543,79.8861,01/02/22,0.5
SURYAPET,Chinthalapalem ( mallareddygudem),Dondapadu,16.817943,80.012784,01/02/22,18.17
SURYAPET,Chinthalapalem ( mallareddygudem),Gudimalkapur,16.796718,79.980992,01/02/22,12.56
SURYAPET,Chinthalapalem ( mallareddygudem),Mallareddigudem,16.76601,79.984304,01/02/22,13.44
SURYAPET,Chivemla,B. Chandupatla,17.141752,79.718666,01/02/22,2.01
SURYAPET,Chivemla,Gumpula Tirumalagiri,17.107692,79.722059,01/02/22,4.03
SURYAPET,Gardepalli,Gardepalli,,,01/02/22,
SURYAPET,Kodad,Thogarrai,16.936788,79.931655,01/02/22,0.52
SURYAPET,Mattampalle,Mattampalli,16.786858,79.854204,01/02/22,2.56
SURYAPET,Mattampalle,Raghunadhapalem,16.753544,79.885324,01/02/22,8.61
SURYAPET,Mellacheruvu,Mellacheruvu,16.83738,79.904517,01/02/22,6.46
SURYAPET,Mothey,Kudali,,,01/02/22,
SURYAPET,Mothey,Mamillaguda,17.18088,79.848406,01/02/22,4.21
SURYAPET,Mothey,Urlaguda,17.25145,79.846083,01/02/22,0.46
SURYAPET,Munagala,Akupamula,17.033053,79.873081,01/02/22,2.35
SURYAPET,Nadigudem,Vaila Singaram,17.080252,79.933253,01/02/22,4.81
SURYAPET,Nereducharla,Dirsencherla,16.85282,79.673823,01/02/22,2.02
SURYAPET,Nuthankal,Dirsenapally,17.360234,79.734976,01/02/22,5.52
SURYAPET,Nuthankal,Maddirala,,,01/02/22,
SURYAPET,Nuthankal,Nuthankal,17.333829,79.691828,01/02/22,2.57
SURYAPET,Palakeedu,Janpahad,16.739271,79.706918,01/02/22,11.94
SURYAPET,Palakeedu,Palakeedu,16.804402,79.69542,01/02/22,0.91
SURYAPET,Suryapet,Pillalamarry,17.146308,79.575342,01/02/22,0.84
SURYAPET,Suryapet,Yerkaram,17.228555,79.575112,01/02/22,17.67
SURYAPET,Thungathurthi,Annaram,17.381962,79.609174,01/02/22,2.4
SURYAPET,Thungathurthi,Ravulapally,17.471323,79.628219,01/02/22,6.88
SURYAPET,Thungathurthi,Thungathurthi,17.398742,79.59122,01/02/22,2.09
SURYAPET,Tirumalagiri,Mamidala,17.508166,79.542476,01/02/22,9.68
SURYAPET,ANANTHAGIRI,GONDRIYALA,,,01/02/22,1.99
SURYAPET,ATHMAKUR(S),ATHMAKUR(S),,,01/02/22,2.6
SURYAPET,CHIVVEMLA,VATTIKHAMMAMPAHAD,,,01/02/22,1.46
SURYAPET,GARIDEPALLI,KALMALACHERUVU,,,01/02/22,1.1
SURYAPET,HUZURNAGAR,HUZURNAGAR,,,01/02/22,
SURYAPET,KODAD,KAPUGAL,,,01/02/22,3.4
SURYAPET,MADDIRALA,MUKUNDAPURAM,,,01/02/22,1.08
SURYAPET,MUNAGALA,MUNAGALA,,,01/02/22,1.12
SURYAPET,MADDIRALA,REDDYGUDEM,,,01/02/22,4.04
SURYAPET,MUNAGALA,NELAMARRI,,,01/02/22,6.22
SURYAPET,MUNAGALA,REPALA,,,01/02/22,4.62
SURYAPET,NADIGUDEM,NADIGUDEM,,,01/02/22,2.97
SURYAPET,NAGARAM,ETOOR,,,01/02/22,0.82
SURYAPET,NEREDUCHERLA,PENCHIKALDINNE,,,01/02/22,3.4
SURYAPET,PALAKEEDU,ALONGAPURAM,,,01/02/22,1.54
SURYAPET,PENPAHAD,N.ANNARAM,,,01/02/22,2.2
SURYAPET,PENPAHAD,PENPAHAD,,,01/02/22,6.1
SURYAPET,SURYAPET,BALEMLA,,,01/02/22,0.92
SURYAPET,SURYAPET,SURYAPET,,,01/02/22,6.41
SURYAPET,THIRUMALAGIRI,THATIPAMULA,,,01/02/22,17.21
VIKARABAD,Bantwaram,Bantwaram,17.444999,77.696,01/02/22,7.97
VIKARABAD,Basheerabad,Basheerabad,17.211,77.444,01/02/22,11.98
VIKARABAD,Bomraspet,Bomraspet,17.164004,77.719418,01/02/22,11.95
VIKARABAD,Bomraspet,Madnapally,17.219275,77.773446,01/02/22,5.02
VIKARABAD,Dharoor,Antharam,17.23312,77.48246,01/02/22,15.87
VIKARABAD,Dharoor,Dharoor,17.303,77.773999,01/02/22,11.03
VIKARABAD,Doma,Doma,17.5195,77.5141,01/02/22,11.95
VIKARABAD,Doulathabad,Doulathabad,16.998299,77.5415,01/02/22,7.82
VIKARABAD,Kodangal,Kodangal,17.0992,77.6011,01/02/22,10.95
VIKARABAD,Kodangal,Rudraram (D),17.132999,77.511,01/02/22,11.35
VIKARABAD,Kodangal,Rudraram (S),17.132999,77.511,01/02/22,7.97
VIKARABAD,Kulkacherla,Kulkacherla,17.016999,77.876,01/02/22,6.16
VIKARABAD,Kulkacherla,Puttaphad ,17.159,77.49174,01/02/22,11.04
VIKARABAD,Marpalli,Marpalli,17.528999,77.771,01/02/22,17.01
VIKARABAD,Marpalli,Narsapur,17.17441,77.34162,01/02/22,33.8
VIKARABAD,Mominpet,Durgam Cheruvu,17.15199,78.1284,01/02/22,6.45
VIKARABAD,Mominpet,Mominpet,17.517999,77.890999,01/02/22,5.67
VIKARABAD,Nawabpet,Nawabpet,17.427777,77.968611,01/02/22,
VIKARABAD,Nawabpet,Vattinenipally(s),17.437,77.977999,01/02/22,5.62
VIKARABAD,Parigi,Parigi,17.179999,77.879999,01/02/22,12.22
VIKARABAD,Peddamul,Kandanelli,17.1344,77.47215,01/02/22,5.3
VIKARABAD,Peddamul,Peddamul,17.33,77.66,01/02/22,10.54
VIKARABAD,Peddamul,Thattepalli,17.16,77.384,01/02/22,8.68
VIKARABAD,Pudur,Chengamala,16.54497,77.59278,01/02/22,7.08
VIKARABAD,Pudur,Pedda Umintyal,17.227999,77.975,01/02/22,6.14
VIKARABAD,Pudur,Pudur,17.263999,77.956999,01/02/22,8.98
VIKARABAD,Tandur,Kota Basupally,17.33,77.499999,01/02/22,8.33
VIKARABAD,Tandur,Tandur,17.33,77.499999,01/02/22,5.4
VIKARABAD,Vikarabad ,Maildevarpally,16.57298,77.51423,01/02/22,31.1
VIKARABAD,Vikarabad ,Vikarabad(S),17.250999,77.590999,01/02/22,11.79
VIKARABAD,Yalal,Yalal,17.2,77.64,01/02/22,12.21
VIKARABAD,Yalal,Bagayapalli,17.01158,77.3252,01/02/22,8.79
VIKARABAD,Yalal,Yenkapally,17.025546,77.384,01/02/22,0.56
WANAPARTHY,Amarchintha,Singampet,,,01/02/22,1.4
WANAPARTHY,Atmakuru,Atmakuru,16.336999,77.806,01/02/22,5.02
WANAPARTHY,Ghanpur,Ghanapur,16.56306,78.046454,01/02/22,3.5
WANAPARTHY,Ghanpur,Kamaluddinpur,,,01/02/22,1.7
WANAPARTHY,Gopalpet,Gopalpet,16.378599,78.1348,01/02/22,3.5
WANAPARTHY,Gopalpet,Yedutla,,,01/02/22,3.3
WANAPARTHY,Kothakota,Kanaipally,16.388259,77.960249,01/02/22,9.3
WANAPARTHY,Kothakota,Madnapur,16.3776,77.872899,01/02/22,3.3
WANAPARTHY,Pangal,Pangal,16.24721,78.104481,01/02/22,4.4
WANAPARTHY,Pebbair,Ayyavaripalli,16.1156,78.023599,01/02/22,1.8
WANAPARTHY,Wanaparthy,Peddagudem,,,01/02/22,2.96
WANAPARTHY,Peddamandadi,Peddamandadi,16.4306,78.025099,01/02/22,3
WANAPARTHY,Weepangandla,Sanginonipally,,,01/02/22,2.9
WARANGAL,Chennaraopet,Chennaraopet,17.5259,79.522,01/02/22,0.58
WARANGAL,Duggondi,Duggondi,18.019399,79.8077,01/02/22,2.26
WARANGAL,Geesugonda,Geesgonda,17.962999,79.6991,01/02/22,3.12
WARANGAL,Geesugonda,Vanchanagiri,17.9475,79.6897,01/02/22,3.68
WARANGAL,Khanapur,Khanapur,17.898799,79.93,01/02/22,2.94
WARANGAL,Nallabelli,Narakkapet,18.007999,79.8875,01/02/22,2.4
WARANGAL,Narsampet,Narasampet,17.9227,79.887499,01/02/22,3.74
WARANGAL,Nekkonda,Ameenpet,17.808099,79.8003,01/02/22,1.28
WARANGAL,Nekkonda,Nagaram,17.4533,79.531,01/02/22,3.58
WARANGAL,Parvathagiri,Parvathagiri,17.744466,79.723991,01/02/22,10.3
WARANGAL,Rayaparthy,Kondur,17.694199,79.547299,01/02/22,7.28
WARANGAL,Rayaparthy,Rayaparthy,17.7072,79.607699,01/02/22,5.02
WARANGAL,Sangem,Sangem,17.8844,79.7113,01/02/22,3.05
WARANGAL,Parvathagiri,Theegarajupally,17.834699,79.7061,01/02/22,8.18
WARANGAL,Wardhannapet,Wardhannapet,17.773,79.5794,01/02/22,6.54
WARANGAL,Khila Warangal,Mamnoor,17.90800278,79.59561389,01/02/22,2.71
WARANGAL,Warangal,Charbowli,17.981899,79.607,01/02/22,2.05
HANUMAKONDA,Bheemadevarpalli,Gatla Narsingapur,18.0881,79.3274,01/02/22,5.25
HANUMAKONDA,Bheemadevarpalli,Kothapally,18.09344444,79.45455278,01/02/22,7.6
HANUMAKONDA,Bheemadevarpalli,Vangara,18.133888,79.344999,01/02/22,9.25
HANUMAKONDA,Dharmasagar,Dharmapuri,18.006403,79.437694,01/02/22,4.81
HANUMAKONDA,Dharmasagar,Narayanagiri,17.9905,79.376899,01/02/22,4.84
HANUMAKONDA,Velair,Velair,18.08066944,79.3907,01/02/22,4.24
HANUMAKONDA,Elkathurthy,Elkathurthy,18.103269,79.437198,01/02/22,8.1
HANUMAKONDA,Hanamkonda,Hanumkonda,18.0008,79.5577,01/02/22,5.79
HANUMAKONDA,Hasanparthy,Seethampet,18.077599,79.515299,01/02/22,4.59
HANUMAKONDA,Inavole,Panthini,17.84918889,79.61472222,01/02/22,2.48
HANUMAKONDA,Inavole,Punnelu,17.87007222,79.59561389,01/02/22,2.87
HANUMAKONDA,Kamalapur,Kamalapur,18.179399,79.524199,01/02/22,1.96
HANUMAKONDA,Kamalapur,Shanigaram,18.184083,79.597194,01/02/22,1.15
HANUMAKONDA,Athmakur,Atmakur,18.0686,79.738,01/02/22,2.06
HANUMAKONDA,Damera,Damera,18.0308,79.381,01/02/22,3
HANUMAKONDA,Nadikuda,Cherlapally,18.233188,79.608064,01/02/22,6.5
HANUMAKONDA,Nadikuda,Nadikuda,18.192999,79.6416,01/02/22,1.6
HANUMAKONDA,Nadikuda,Parkal,18.2016,79.6374,01/02/22,3
WARANGAL,Nellikudur,Annaram shariff,17.4131,79.4117,01/02/22,6.25
HANUMAKONDA,Shayampet,Pathipaka(Abendent),,,01/02/22,3.4
YADADRI,Gundala,Ambala,17.494643,79.253042,01/02/22,6.33
YADADRI,Gundala,Peddapadishala,,,01/02/22,3.62
YADADRI,Gundala,Velmajala,,,01/02/22,2.59
YADADRI,Alair,Kolanpaka,17.690896,79.036291,01/02/22,2.36
YADADRI,Alair,Sarajipet,17.617622,79.118658,01/02/22,8.89
YADADRI,Atmakur,Chada,17.51638889,79.11277778,01/02/22,7.12
YADADRI,Atmakur(m),Atmakur,17.465339,79.139056,01/02/22,10.02
YADADRI,B.Pochampalli,B.Pochampalli,17.336196,78.810768,01/02/22,6.52
YADADRI,Bhongiri,Bhongiri,17.484698,78.907077,01/02/22,3.37
YADADRI,Bhongiri,Chandupatla,17.499212,78.97936,01/02/22,8.31
YADADRI,Bhongiri,Nandanam,17.436592,78.927323,01/02/22,4.1
YADADRI,Bibinagar,Bibinagar,17.460344,78.801601,01/02/22,9.94
YADADRI,Bibinagar,Yenkiryal,17.407101,78.768589,01/02/22,5.25
YADADRI,Choutuppal,D.Malkapur,17.243055,78.847222,01/02/22,3.81
YADADRI,M.Turkapally,Ch.Laxmapur,17.651268,78.754263,01/02/22,3.56
YADADRI,Mothukur,Kanchanapalli,17.447357,79.262826,01/02/22,3.6
YADADRI,Mothukur,Mothukur,17.394263,79.192816,01/02/22,5.12
YADADRI,Mothukur,Paladugu,17.378081,79.280102,01/02/22,3.6
YADADRI,Mothukur,Podichedu,17.39083333,79.34083333,01/02/22,8.71
YADADRI,Rajapet,Bondugala,17.768305,78.9665,01/02/22,3.75
YADADRI,Rajapet,Kurraram,17.781431,78.933771,01/02/22,5.15
YADADRI,Rajapet,Raghunadapuram,17.679134,78.94736,01/02/22,4.39
YADADRI,Rajapet,Rajapet,17.73768,78.927703,01/02/22,2.59
YADADRI,Rajapet,Somaram,16.68777778,78.80111111,01/02/22,9.1
YADADRI,Ramannapet,Ramanapet,17.283121,79.095091,01/02/22,4.22
YADADRI,Ramannapet,Yellanki,17.293818,79.030897,01/02/22,9.23
YADADRI,Ramannapet,Yennaram,17.318131,79.20265,01/02/22,3.43
YADADRI,S.Narayanpur,S.Narayanpur,17.144719,78.86001,01/02/22,6.59
YADADRI,Thurkapally,Gandamalla,17.16694444,79.02,01/02/22,7.88
YADADRI,Valigonda,Arror,17.386758,79.10801,01/02/22,1.35
YADADRI,Valigonda,T. somaram,17.399953,78.95229,01/02/22,5.15
YADADRI,Valigonda,Varkatpally,17.338506,78.932216,01/02/22,5.08
YADADRI,Valigonda,Vemulakonda,17.347782,79.143433,01/02/22,3.08
YADADRI,Y.Gutta,Mallapuram,17.633555,78.911638,01/02/22,6.2
YADADRI,Y.Gutta,Motakondur,,,01/02/22,10.74